~VERSION INFORMATION
 VERS.                 2.0:   CWLS LOG ASCII STANDARD - VERSION 2.0
 WRAP.                  NO:   SINGLE LINE PER DEPTH STEP
 CREA.                 04/15/2020 08:51:23
#CREATED USING IP VERSION 4.5.2018.127 BY RODRIGC1 ON 04/15/2020 08:51:23
~WELL INFORMATION
#MNEM.UNIT       DATA                          DESCRIPTION MNEMONIC
#---------      ---------------------------   --------------------------
 STRT    .FT        330.0000                  : START DEPTH
 STOP    .FT        5034.0000                 : STOP DEPTH
 STEP    .FT        0.5000                    : STEP VALUE
 NULL    .      -999.0000                     : NULL VALUE
 DATE    .      04/15/2020                    : LAS file Creation Date
 WELL   .      CIRA-3900               : Well Name
 COM1   .      Original database: Rosy : Well Comment
 COMP   .      ECOPETROL S.A.          : Company
 FLD    .      LA CIRA INFANTAS        : Field
 STATE  .      SANTANDER               : State
 COUNT  .      COLOMBIA                : Country
 API    .      3900                    : API Number
 UWI    .      CIRA3900                : Unique Well Identifier (UWI)
 LOC    .      SURFACE COORDENATES     : Location
 TOWN   .      N/A                     : Township
 SCT    .      N/A                     : Section
 RANG   .      N/A                     : Range
 PDAT   .      GL                      : Permanent Datum
 EPDAT  .      307.1000                : Elevation of Permanent Datum
 LGMEA  .      DF                      : Log Measured from
 DRMEA  .      DF                      : Drill Measured From
 APDAT  .      16.0000                 : Elevation Above Permanent Datum
 KB     .      323.1000                : KB Elevation
 DF     .      323.1000                : DF Elevation
 GL     .      307.1000                : GL Elevation
 RWS    .      -999                    : Def_Rw
 WST    .      -999                    : Def_Rwt
 UTMZ   .      31                      : UTM Zone
 CNTY   .      BMEJA                   : County
 PROV   .      BARRANCABERMEJA         : Province
 SRVC   .      SCH                     : Contractor
 GDAT   .      WGS 84                  : Geodatum
 LONG   .      0                       : Longitude
 LATI   .      0                       : Latitude
 COORDIN.                              : Grid System
 XCOORD .                              : X or East-West Coordinate
 YCOORD .                              : Y or North-South Coordinate
~CURVE INFORMATION
#MNEM              UNIT       API CODE   Curve Type Comments
#----------  --------------- ----------  ---------- -----------
 DEPTH      .FT                        : Depth       
 PHIE       .Dec                       : Phi         
 K_3104     .                          :             
 SW         .Dec                       : Sw          
~A  DEPTH    PHIE     K_3104      SW    
# ...
2780.0000    0.2048 -999.0000    0.4096 
2780.5000    0.2797 -999.0000    0.3015 
2781.0000    0.2936 -999.0000    0.3094 
2781.5000    0.2860 -999.0000    0.3189 
2782.0000    0.2931 -999.0000    0.3088 
2782.5000    0.2727 -999.0000    0.3302 
2783.0000    0.2238 -999.0000    0.4514 
2783.5000    0.1277 -999.0000    0.5221 
2784.0000    0.1147 -999.0000    0.5508 
2784.5000    0.1548 -999.0000    0.4686 
2785.0000    0.1904 -999.0000    0.4411 
2785.5000    0.2065 -999.0000    0.4497 
2786.0000    0.1995 -999.0000    0.4650 
2786.5000    0.1186 -999.0000    0.5705 
2787.0000    0.0516 -999.0000    0.9266 
2787.5000    0.1375 -999.0000    0.5361 
2788.0000    0.2615 -999.0000    0.3246 
2788.5000    0.3624 -999.0000    0.3879 
2789.0000    0.3151 -999.0000    0.3832 
2789.5000    0.3660 -999.0000    0.3928 
2790.0000    0.3117 -999.0000    0.3556 
2790.5000    0.3467 -999.0000    0.4268 
2791.0000    0.2229 -999.0000    0.5117 
2791.5000    0.1514 -999.0000    0.6245 
2792.0000    0.1010 -999.0000    0.8410 
2792.5000    0.0693 -999.0000    1.0000 
2793.0000    0.0793 -999.0000    1.0000 
2793.5000    0.0927 -999.0000    1.0000 
2794.0000    0.1040 -999.0000    1.0000 
2794.5000    0.1259 -999.0000    0.9588 
2795.0000    0.1528 -999.0000    0.9155 
2795.5000    0.1525 -999.0000    0.9266 
2796.0000    0.1412 -999.0000    0.9920 
2796.5000    0.1364 -999.0000    1.0000 
2797.0000    0.1558 -999.0000    1.0000 
2797.5000    0.1665 -999.0000    0.9636 
2798.0000    0.1759 -999.0000    0.9286 
2798.5000    0.1830 -999.0000    0.9088 
2799.0000    0.1786 -999.0000    0.9104 
2799.5000    0.1717 -999.0000    0.9137 
2800.0000    0.1761 -999.0000    0.8866 
2800.5000    0.1675 -999.0000    0.8276 
2801.0000    0.1352 -999.0000    0.8016 
2801.5000    0.0538 -999.0000    1.0000 
2802.0000    0.0214 -999.0000    1.0000 
2802.5000    0.2520 -999.0000    0.4625 
2803.0000    0.2928 -999.0000    0.4489 
2803.5000    0.2966 -999.0000    0.4366 
2804.0000    0.3087 -999.0000    0.4095 
2804.5000    0.3194 -999.0000    0.3977 
2805.0000    0.3096 -999.0000    0.3880 
2805.5000    0.2927 -999.0000    0.3900 
2806.0000    0.2446 -999.0000    0.4517 
2806.5000    0.2744 -999.0000    0.4062 
2807.0000    0.3002 -999.0000    0.3785 
2807.5000    0.3001 -999.0000    0.3756 
2808.0000    0.2670 -999.0000    0.3781 
2808.5000    0.2937 -999.0000    0.3713 
2809.0000    0.2924 -999.0000    0.3765 
2809.5000    0.3228 -999.0000    0.3789 
2810.0000    0.3647 -999.0000    0.3704 
2810.5000    0.1862 -999.0000    0.3986 
2811.0000    0.0027 -999.0000    1.0000 
2811.5000    0.2482 -999.0000    0.3994 
2812.0000    0.2802 -999.0000    0.3877 
2812.5000    0.3746 -999.0000    0.3533 
2813.0000    0.2861 -999.0000    0.3446 
2813.5000    0.3092 -999.0000    0.3617 
2814.0000    0.2873 -999.0000    0.3704 
2814.5000    0.2764 -999.0000    0.3757 
2815.0000    0.2684 -999.0000    0.3740 
2815.5000    0.2145 -999.0000    0.4158 
2816.0000    0.0156 -999.0000    1.0000 
2816.5000    0.1014 -999.0000    0.7154 
2817.0000    0.1158 -999.0000    0.6107 
2817.5000    0.1262 -999.0000    0.5538 
2818.0000    0.1153 -999.0000    0.6501 
2818.5000    0.0732 -999.0000    1.0000 
2819.0000    0.0531 -999.0000    1.0000 
2819.5000    0.0486 -999.0000    1.0000 
2820.0000    0.0849 -999.0000    0.8738 
2820.5000    0.0907 -999.0000    0.8018 
2821.0000    0.0717 -999.0000    1.0000 
2821.5000    0.0855 -999.0000    0.8579 
2822.0000    0.1700 -999.0000    0.4753 
2822.5000    0.2537 -999.0000    0.3504 
2823.0000    0.2559 -999.0000    0.3638 
2823.5000    0.2753 -999.0000    0.3783 
2824.0000    0.2757 -999.0000    0.3758 
2824.5000    0.2641 -999.0000    0.3694 
2825.0000    0.2603 -999.0000    0.3729 
2825.5000    0.2371 -999.0000    0.4099 
2826.0000    0.2003 -999.0000    0.4902 
2826.5000    0.1631 -999.0000    0.5771 
2827.0000    0.1375 -999.0000    0.6293 
2827.5000    0.1315 -999.0000    0.6105 
2828.0000    0.1552 -999.0000    0.5184 
2828.5000    0.1779 -999.0000    0.4816 
2829.0000    0.1890 -999.0000    0.4784 
2829.5000    0.2213 -999.0000    0.4339 
2830.0000    0.2103 -999.0000    0.4591 
2830.5000    0.1560 -999.0000    0.5842 
2831.0000    0.1615 -999.0000    0.5831 
2831.5000    0.2232 -999.0000    0.4638 
2832.0000    0.2782 -999.0000    0.3926 
2832.5000    0.2986 -999.0000    0.3772 
2833.0000    0.0028 -999.0000    1.0000 
2833.5000    0.2326 -999.0000    0.4679 
2834.0000    0.2144 -999.0000    0.4948 
2834.5000    0.2280 -999.0000    0.4680 
2835.0000    0.2704 -999.0000    0.4213 
2835.5000    0.2948 -999.0000    0.3929 
2836.0000    0.2690 -999.0000    0.4218 
2836.5000    0.2395 -999.0000    0.4830 
2837.0000    0.2157 -999.0000    0.5059 
2837.5000    0.2013 -999.0000    0.5235 
2838.0000    0.2070 -999.0000    0.5329 
2838.5000    0.2055 -999.0000    0.5275 
2839.0000    0.2044 -999.0000    0.5236 
2839.5000    0.2155 -999.0000    0.5353 
2840.0000    0.2204 -999.0000    0.5425 
2840.5000    0.2157 -999.0000    0.5399 
2841.0000    0.1911 -999.0000    0.5923 
2841.5000    0.1634 -999.0000    0.6686 
2842.0000    0.1596 -999.0000    0.6450 
2842.5000    0.1466 -999.0000    0.6281 
2843.0000    0.1224 -999.0000    0.6225 
2843.5000    0.1301 -999.0000    0.5419 
2844.0000    0.1096 -999.0000    0.4191 
2844.5000    0.0844 -999.0000    0.4337 
2845.0000    0.0827 -999.0000    0.4923 
2845.5000    0.0908 -999.0000    0.4911 
2846.0000    0.0893 -999.0000    0.4826 
2846.5000    0.1583 -999.0000    0.4458 
2847.0000    0.2677 -999.0000    0.2809 
2847.5000    0.2965 -999.0000    0.2734 
2848.0000    0.2784 -999.0000    0.2804 
2848.5000    0.2846 -999.0000    0.2855 
2849.0000    0.2570 -999.0000    0.3007 
2849.5000    0.2592 -999.0000    0.2973 
2850.0000    0.2658 -999.0000    0.3062 
2850.5000    0.2596 -999.0000    0.2987 
2851.0000    0.2433 -999.0000    0.3097 
2851.5000    0.2354 -999.0000    0.3361 
2852.0000    0.2363 -999.0000    0.3846 
2852.5000    0.1608 -999.0000    0.7096 
2853.0000    0.0761 -999.0000    1.0000 
2853.5000    0.0488 -999.0000    1.0000 
2854.0000    0.0609 -999.0000    1.0000 
2854.5000    0.0939 -999.0000    1.0000 
2855.0000    0.1331 -999.0000    0.9803 
2855.5000    0.1697 -999.0000    0.8501 
2856.0000    0.1934 -999.0000    0.7555 
2856.5000    0.2045 -999.0000    0.7004 
2857.0000    0.1911 -999.0000    0.6507 
2857.5000    0.2850 -999.0000    0.5387 
2858.0000    0.3936 -999.0000    0.4151 
2858.5000    0.3071 -999.0000    0.4267 
2859.0000    0.2921 -999.0000    0.4251 
2859.5000    0.2973 -999.0000    0.4136 
2860.0000    0.3176 -999.0000    0.4087 
2860.5000    0.3094 -999.0000    0.4047 
2861.0000    0.2739 -999.0000    0.4279 
2861.5000    0.2243 -999.0000    0.4937 
2862.0000    0.1989 -999.0000    0.5591 
2862.5000    0.1714 -999.0000    0.6539 
2863.0000    0.1356 -999.0000    0.8050 
2863.5000    0.1481 -999.0000    0.7557 
2864.0000    0.1992 -999.0000    0.5667 
2864.5000    0.2254 -999.0000    0.4915 
2865.0000    0.2001 -999.0000    0.5051 
2865.5000    0.1640 -999.0000    0.5364 
2866.0000    0.1446 -999.0000    0.5300 
2866.5000    0.0806 -999.0000    0.6327 
2867.0000    0.0769 -999.0000    0.3943 
2867.5000    0.0814 -999.0000    0.4043 
2868.0000    0.0902 -999.0000    0.4635 
2868.5000    0.1045 -999.0000    0.3622 
2869.0000    0.1807 -999.0000    0.3578 
2869.5000    0.2013 -999.0000    0.3703 
2870.0000    0.1453 -999.0000    0.3809 
2870.5000    0.0775 -999.0000    0.4692 
2871.0000    0.0488 -999.0000    0.9681 
2871.5000    0.1243 -999.0000    0.5396 
2872.0000    0.2042 -999.0000    0.3838 
2872.5000    0.2783 -999.0000    0.3123 
2873.0000    0.3086 -999.0000    0.3045 
2873.5000    0.2988 -999.0000    0.3040 
2874.0000    0.2836 -999.0000    0.3003 
2874.5000    0.3010 -999.0000    0.3196 
2875.0000    0.3155 -999.0000    0.3354 
2875.5000    0.2093 -999.0000    0.4940 
2876.0000    0.0885 -999.0000    0.7100 
2876.5000    0.0523 -999.0000    1.0000 
2877.0000    0.0736 -999.0000    0.8442 
2877.5000    0.0756 -999.0000    0.8113 
