~VERSION INFORMATION
 VERS.                 2.0:   CWLS LOG ASCII STANDARD - VERSION 2.0
 WRAP.                  NO:   SINGLE LINE PER DEPTH STEP
 CREA.                 04/15/2020 08:51:23
#CREATED USING IP VERSION 4.5.2018.127 BY RODRIGC1 ON 04/15/2020 08:51:23
~WELL INFORMATION
#MNEM.UNIT       DATA                          DESCRIPTION MNEMONIC
#---------      ---------------------------   --------------------------
 STRT    .FT        330.0000                  : START DEPTH
 STOP    .FT        5034.0000                 : STOP DEPTH
 STEP    .FT        0.5000                    : STEP VALUE
 NULL    .      -999.0000                     : NULL VALUE
 DATE    .      04/15/2020                    : LAS file Creation Date
 WELL   .      CIRA-3900               : Well Name
 COM1   .      Original database: Rosy : Well Comment
 COMP   .      ECOPETROL S.A.          : Company
 FLD    .      LA CIRA INFANTAS        : Field
 STATE  .      SANTANDER               : State
 COUNT  .      COLOMBIA                : Country
 API    .      3900                    : API Number
 UWI    .      CIRA3900                : Unique Well Identifier (UWI)
 LOC    .      SURFACE COORDENATES     : Location
 TOWN   .      N/A                     : Township
 SCT    .      N/A                     : Section
 RANG   .      N/A                     : Range
 PDAT   .      GL                      : Permanent Datum
 EPDAT  .      307.1000                : Elevation of Permanent Datum
 LGMEA  .      DF                      : Log Measured from
 DRMEA  .      DF                      : Drill Measured From
 APDAT  .      16.0000                 : Elevation Above Permanent Datum
 KB     .      323.1000                : KB Elevation
 DF     .      323.1000                : DF Elevation
 GL     .      307.1000                : GL Elevation
 RWS    .      -999                    : Def_Rw
 WST    .      -999                    : Def_Rwt
 UTMZ   .      31                      : UTM Zone
 CNTY   .      BMEJA                   : County
 PROV   .      BARRANCABERMEJA         : Province
 SRVC   .      SCH                     : Contractor
 GDAT   .      WGS 84                  : Geodatum
 LONG   .      0                       : Longitude
 LATI   .      0                       : Latitude
 COORDIN.                              : Grid System
 XCOORD .                              : X or East-West Coordinate
 YCOORD .                              : Y or North-South Coordinate
~CURVE INFORMATION
#MNEM              UNIT       API CODE   Curve Type Comments
#----------  --------------- ----------  ---------- -----------
 DEPTH      .FT                        : Depth       
 PHIE       .Dec                       : Phi         
 K_3104     .                          :             
 SW         .Dec                       : Sw          
~A  DEPTH    PHIE     K_3104      SW    
# ...
1604.0000    0.1179 -999.0000    0.6777 
1604.5000    0.1036 -999.0000    0.7233 
1605.0000    0.0931 -999.0000    0.7928 
1605.5000    0.0813 -999.0000    0.8746 
1606.0000    0.0885 -999.0000    0.8349 
1606.5000    0.1195 -999.0000    0.6652 
1607.0000    0.1777 -999.0000    0.4547 
1607.5000    0.2860 -999.0000    0.3805 
1608.0000    0.2682 -999.0000    0.3634 
1608.5000    0.1679 -999.0000    0.4165 
1609.0000    0.0178 -999.0000    1.0000 
1609.5000    0.1378 -999.0000    0.5289 
1610.0000    0.1963 -999.0000    0.3826 
1610.5000    0.2146 -999.0000    0.4180 
1611.0000    0.0469 -999.0000    1.0000 
1611.5000    0.0529 -999.0000    1.0000 
1612.0000    0.2393 -999.0000    0.4390 
1612.5000    0.3006 -999.0000    0.4015 
1613.0000    0.1990 -999.0000    0.4057 
1613.5000    0.0201 -999.0000    1.0000 
1614.0000    0.0392 -999.0000    1.0000 
1614.5000    0.1104 -999.0000    0.7447 
1615.0000    0.1872 -999.0000    0.4391 
1615.5000    0.2409 -999.0000    0.3995 
1616.0000    0.1093 -999.0000    0.8399 
1616.5000    0.0348 -999.0000    1.0000 
1617.0000    0.1132 -999.0000    0.7724 
1617.5000    0.2647 -999.0000    0.3918 
1618.0000    0.3382 -999.0000    0.3889 
1618.5000    0.3162 -999.0000    0.3906 
1619.0000    0.1843 -999.0000    0.4238 
1619.5000    0.1660 -999.0000    0.4422 
1620.0000    0.1531 -999.0000    0.5133 
1620.5000    0.1889 -999.0000    0.4291 
1621.0000    0.1716 -999.0000    0.4159 
1621.5000    0.1735 -999.0000    0.3965 
1622.0000    0.1910 -999.0000    0.3679 
1622.5000    0.3158 -999.0000    0.3574 
1623.0000    0.4398 -999.0000    0.3629 
1623.5000    0.3978 -999.0000    0.3646 
1624.0000    0.2391 -999.0000    0.3510 
1624.5000    0.2156 -999.0000    0.3893 
1625.0000    0.2375 -999.0000    0.3888 
1625.5000    0.1762 -999.0000    0.3608 
1626.0000    0.0880 -999.0000    0.9870 
1626.5000    0.1337 -999.0000    0.4614 
1627.0000    0.1478 -999.0000    0.4149 
1627.5000    0.1220 -999.0000    0.6070 
1628.0000    0.0585 -999.0000    1.0000 
1628.5000    0.0051 -999.0000    1.0000 
1629.0000    0.0423 -999.0000    1.0000 
1629.5000    0.0507 -999.0000    1.0000 
1630.0000    0.0663 -999.0000    0.9124 
1630.5000    0.0078 -999.0000    1.0000 
1631.0000    0.0015 -999.0000    1.0000 
1631.5000    0.0016 -999.0000    1.0000 
1632.0000    0.0074 -999.0000    1.0000 
1632.5000    0.0312 -999.0000    1.0000 
1633.0000    0.0022 -999.0000    1.0000 
1633.5000    0.0846 -999.0000    0.7320 
1634.0000    0.1339 -999.0000    0.4794 
1634.5000    0.1623 -999.0000    0.3984 
1635.0000    0.1113 -999.0000    0.6856 
1635.5000    0.0265 -999.0000    1.0000 
1636.0000    0.1937 -999.0000    0.3573 
1636.5000    0.2402 -999.0000    0.3784 
1637.0000    0.2330 -999.0000    0.3865 
1637.5000    0.1910 -999.0000    0.3870 
1638.0000    0.1648 -999.0000    0.4305 
1638.5000    0.2064 -999.0000    0.3798 
1639.0000    0.1655 -999.0000    0.4400 
1639.5000    0.0807 -999.0000    1.0000 
1640.0000    0.0419 -999.0000    1.0000 
1640.5000    0.1367 -999.0000    0.4947 
1641.0000    0.1845 -999.0000    0.3619 
1641.5000    0.0912 -999.0000    0.9572 
1642.0000    0.0253 -999.0000    1.0000 
1642.5000    0.0126 -999.0000    1.0000 
1643.0000    0.0008 -999.0000    1.0000 
1643.5000    0.0001 -999.0000    1.0000 
1644.0000    0.0006 -999.0000    1.0000 
1644.5000    0.0011 -999.0000    1.0000 
1645.0000    0.0001 -999.0000    1.0000 
1645.5000    0.0001 -999.0000    1.0000 
1646.0000    0.0001 -999.0000    1.0000 
1646.5000    0.0001 -999.0000    1.0000 
1647.0000    0.0008 -999.0000    1.0000 
1647.5000    0.0714 -999.0000    0.8333 
1648.0000    0.1343 -999.0000    0.4904 
1648.5000    0.1675 -999.0000    0.4041 
1649.0000    0.1358 -999.0000    0.5298 
1649.5000    0.0506 -999.0000    0.8775 
1650.0000    0.0240 -999.0000    1.0000 
1650.5000    0.0350 -999.0000    1.0000 
1651.0000    0.0562 -999.0000    0.8527 
1651.5000    0.0706 -999.0000    0.7812 
1652.0000    0.0681 -999.0000    0.8216 
1652.5000    0.0552 -999.0000    1.0000 
1653.0000    0.0651 -999.0000    0.9186 
1653.5000    0.0785 -999.0000    1.0000 
1654.0000    0.1181 -999.0000    0.5802 
1654.5000    0.0969 -999.0000    0.6467 
1655.0000    0.0645 -999.0000    0.8153 
1655.5000    0.0545 -999.0000    0.9283 
1656.0000    0.0326 -999.0000    1.0000 
1656.5000    0.0192 -999.0000    1.0000 
1657.0000    0.0208 -999.0000    1.0000 
1657.5000    0.0463 -999.0000    1.0000 
1658.0000    0.0925 -999.0000    0.6459 
1658.5000    0.1382 -999.0000    0.5091 
1659.0000    0.1863 -999.0000    0.4743 
1659.5000    0.2302 -999.0000    0.4459 
1660.0000    0.2143 -999.0000    0.4466 
1660.5000    0.1768 -999.0000    0.4625 
1661.0000    0.1529 -999.0000    0.4978 
1661.5000    0.1446 -999.0000    0.5234 
1662.0000    0.1516 -999.0000    0.4889 
1662.5000    0.1581 -999.0000    0.4427 
1663.0000    0.1609 -999.0000    0.4447 
1663.5000    0.1600 -999.0000    0.4627 
1664.0000    0.1724 -999.0000    0.4621 
1664.5000    0.1897 -999.0000    0.4522 
1665.0000    0.1869 -999.0000    0.4302 
1665.5000    0.1738 -999.0000    0.4384 
1666.0000    0.1585 -999.0000    0.4345 
1666.5000    0.1735 -999.0000    0.4785 
1667.0000    0.1985 -999.0000    0.5037 
1667.5000    0.2205 -999.0000    0.4747 
1668.0000    0.2262 -999.0000    0.4658 
1668.5000    0.1941 -999.0000    0.5032 
1669.0000    0.1167 -999.0000    0.6031 
1669.5000    0.0482 -999.0000    1.0000 
1670.0000    0.0253 -999.0000    1.0000 
1670.5000    0.0424 -999.0000    1.0000 
1671.0000    0.0711 -999.0000    0.7972 
1671.5000    0.1108 -999.0000    0.6336 
1672.0000    0.1476 -999.0000    0.5495 
1672.5000    0.1484 -999.0000    0.5425 
1673.0000    0.1152 -999.0000    0.5603 
1673.5000    0.1060 -999.0000    0.6490 
1674.0000    0.1050 -999.0000    0.6538 
1674.5000    0.1055 -999.0000    0.6266 
1675.0000    0.0887 -999.0000    0.6085 
1675.5000    0.0834 -999.0000    0.5680 
1676.0000    0.1014 -999.0000    0.3918 
1676.5000    0.1407 -999.0000    0.2882 
1677.0000    0.1727 -999.0000    0.3836 
1677.5000    0.1542 -999.0000    0.4143 
1678.0000    0.1519 -999.0000    0.3793 
1678.5000    0.1442 -999.0000    0.3609 
1679.0000    0.1055 -999.0000    0.4144 
1679.5000    0.0518 -999.0000    0.5094 
1680.0000    0.0517 -999.0000    0.5858 
1680.5000    0.1513 -999.0000    0.4232 
1681.0000    0.2202 -999.0000    0.4327 
1681.5000    0.2432 -999.0000    0.4753 
1682.0000    0.0126 -999.0000    1.0000 
1682.5000    0.0078 -999.0000    1.0000 
1683.0000    0.1679 -999.0000    0.5281 
1683.5000    0.1832 -999.0000    0.4406 
1684.0000    0.2223 -999.0000    0.3813 
1684.5000    0.2713 -999.0000    0.3651 
1685.0000    0.2935 -999.0000    0.3987 
1685.5000    0.2173 -999.0000    0.4053 
1686.0000    0.1568 -999.0000    0.3926 
1686.5000    0.1642 -999.0000    0.3446 
1687.0000    0.1790 -999.0000    0.3379 
1687.5000    0.1928 -999.0000    0.3963 
1688.0000    0.2207 -999.0000    0.4226 
1688.5000    0.2158 -999.0000    0.4450 
1689.0000    0.1641 -999.0000    0.4965 
1689.5000    0.1348 -999.0000    0.5027 
1690.0000    0.1240 -999.0000    0.5624 
1690.5000    0.0901 -999.0000    0.6985 
1691.0000    0.0793 -999.0000    0.7282 
1691.5000    0.1010 -999.0000    0.6091 
1692.0000    0.1333 -999.0000    0.4150 
1692.5000    0.1785 -999.0000    0.2616 
1693.0000    0.2037 -999.0000    0.1909 
1693.5000    0.2148 -999.0000    0.1968 
1694.0000    0.2230 -999.0000    0.2016 
1694.5000    0.2490 -999.0000    0.2137 
1695.0000    0.2646 -999.0000    0.2236 
1695.5000    0.2723 -999.0000    0.2297 
1696.0000    0.2609 -999.0000    0.2145 
1696.5000    0.2529 -999.0000    0.2259 
1697.0000    0.2534 -999.0000    0.2452 
1697.5000    0.2526 -999.0000    0.2744 
1698.0000    0.2421 -999.0000    0.3241 
1698.5000    0.2142 -999.0000    0.3627 
1699.0000    0.1868 -999.0000    0.4130 
1699.5000    0.1736 -999.0000    0.4564 
1700.0000    0.1622 -999.0000    0.4416 
1700.5000    0.1621 -999.0000    0.4212 
1701.0000    0.1548 -999.0000    0.3978 
1701.5000    0.1385 -999.0000    0.3583 
