~VERSION INFORMATION
 VERS.                 2.0:   CWLS LOG ASCII STANDARD - VERSION 2.0
 WRAP.                  NO:   SINGLE LINE PER DEPTH STEP
 CREA.                 04/15/2020 08:51:23
#CREATED USING IP VERSION 4.5.2018.127 BY RODRIGC1 ON 04/15/2020 08:51:23
~WELL INFORMATION
#MNEM.UNIT       DATA                          DESCRIPTION MNEMONIC
#---------      ---------------------------   --------------------------
 STRT    .FT        330.0000                  : START DEPTH
 STOP    .FT        5034.0000                 : STOP DEPTH
 STEP    .FT        0.5000                    : STEP VALUE
 NULL    .      -999.0000                     : NULL VALUE
 DATE    .      04/15/2020                    : LAS file Creation Date
 WELL   .      CIRA-3900               : Well Name
 COM1   .      Original database: Rosy : Well Comment
 COMP   .      ECOPETROL S.A.          : Company
 FLD    .      LA CIRA INFANTAS        : Field
 STATE  .      SANTANDER               : State
 COUNT  .      COLOMBIA                : Country
 API    .      3900                    : API Number
 UWI    .      CIRA3900                : Unique Well Identifier (UWI)
 LOC    .      SURFACE COORDENATES     : Location
 TOWN   .      N/A                     : Township
 SCT    .      N/A                     : Section
 RANG   .      N/A                     : Range
 PDAT   .      GL                      : Permanent Datum
 EPDAT  .      307.1000                : Elevation of Permanent Datum
 LGMEA  .      DF                      : Log Measured from
 DRMEA  .      DF                      : Drill Measured From
 APDAT  .      16.0000                 : Elevation Above Permanent Datum
 KB     .      323.1000                : KB Elevation
 DF     .      323.1000                : DF Elevation
 GL     .      307.1000                : GL Elevation
 RWS    .      -999                    : Def_Rw
 WST    .      -999                    : Def_Rwt
 UTMZ   .      31                      : UTM Zone
 CNTY   .      BMEJA                   : County
 PROV   .      BARRANCABERMEJA         : Province
 SRVC   .      SCH                     : Contractor
 GDAT   .      WGS 84                  : Geodatum
 LONG   .      0                       : Longitude
 LATI   .      0                       : Latitude
 COORDIN.                              : Grid System
 XCOORD .                              : X or East-West Coordinate
 YCOORD .                              : Y or North-South Coordinate
~CURVE INFORMATION
#MNEM              UNIT       API CODE   Curve Type Comments
#----------  --------------- ----------  ---------- -----------
 DEPTH      .FT                        : Depth       
 PHIE       .Dec                       : Phi         
 K_3104     .                          :             
 SW         .Dec                       : Sw          
~A  DEPTH    PHIE     K_3104      SW    
# ...
1212.0000    0.1094 -999.0000    0.2730 
1212.5000    0.0853 -999.0000    0.2477 
1213.0000    0.0827 -999.0000    0.2824 
1213.5000    0.0843 -999.0000    0.3312 
1214.0000    0.0781 -999.0000    0.3770 
1214.5000    0.0717 -999.0000    0.3988 
1215.0000    0.0576 -999.0000    0.4358 
1215.5000    0.0442 -999.0000    0.4938 
1216.0000    0.0567 -999.0000    0.4654 
1216.5000    0.0985 -999.0000    0.4567 
1217.0000    0.1295 -999.0000    0.4323 
1217.5000    0.1487 -999.0000    0.3895 
1218.0000    0.1789 -999.0000    0.3526 
1218.5000    0.1976 -999.0000    0.3344 
1219.0000    0.1993 -999.0000    0.3216 
1219.5000    0.1963 -999.0000    0.2936 
1220.0000    0.1989 -999.0000    0.2920 
1220.5000    0.1966 -999.0000    0.2779 
1221.0000    0.2080 -999.0000    0.2705 
1221.5000    0.2213 -999.0000    0.2767 
1222.0000    0.2200 -999.0000    0.2792 
1222.5000    0.2355 -999.0000    0.3249 
1223.0000    0.2410 -999.0000    0.3333 
1223.5000    0.2377 -999.0000    0.3234 
1224.0000    0.2336 -999.0000    0.3047 
1224.5000    0.2380 -999.0000    0.3080 
1225.0000    0.2406 -999.0000    0.3213 
1225.5000    0.2445 -999.0000    0.3388 
1226.0000    0.2337 -999.0000    0.3178 
1226.5000    0.2292 -999.0000    0.3186 
1227.0000    0.2286 -999.0000    0.3191 
1227.5000    0.2248 -999.0000    0.3206 
1228.0000    0.2151 -999.0000    0.3284 
1228.5000    0.2031 -999.0000    0.3288 
1229.0000    0.2010 -999.0000    0.3349 
1229.5000    0.1959 -999.0000    0.3392 
1230.0000    0.1885 -999.0000    0.3531 
1230.5000    0.1812 -999.0000    0.3541 
1231.0000    0.1669 -999.0000    0.3440 
1231.5000    0.1424 -999.0000    0.3496 
1232.0000    0.1293 -999.0000    0.3711 
1232.5000    0.1217 -999.0000    0.3609 
1233.0000    0.1187 -999.0000    0.4200 
1233.5000    0.0879 -999.0000    0.5011 
1234.0000    0.0407 -999.0000    0.9015 
1234.5000    0.0016 -999.0000    1.0000 
1235.0000    0.0155 -999.0000    1.0000 
1235.5000    0.0541 -999.0000    0.7221 
1236.0000    0.0281 -999.0000    1.0000 
1236.5000    0.0001 -999.0000    1.0000 
1237.0000    0.0001 -999.0000    1.0000 
1237.5000    0.0886 -999.0000    0.3887 
1238.0000    0.1408 -999.0000    0.3723 
1238.5000    0.1067 -999.0000    0.2671 
1239.0000    0.1478 -999.0000    0.4049 
1239.5000    0.1677 -999.0000    0.4231 
1240.0000    0.1451 -999.0000    0.4171 
1240.5000    0.1146 -999.0000    0.4512 
1241.0000    0.0986 -999.0000    0.4541 
1241.5000    0.1238 -999.0000    0.3991 
1242.0000    0.1650 -999.0000    0.3850 
1242.5000    0.1729 -999.0000    0.3805 
1243.0000    0.1762 -999.0000    0.3586 
1243.5000    0.1832 -999.0000    0.3628 
1244.0000    0.1552 -999.0000    0.3736 
1244.5000    0.1364 -999.0000    0.3866 
1245.0000    0.1653 -999.0000    0.3766 
1245.5000    0.2064 -999.0000    0.3599 
1246.0000    0.2500 -999.0000    0.3560 
1246.5000    0.2857 -999.0000    0.3531 
1247.0000    0.2827 -999.0000    0.3535 
1247.5000    0.2539 -999.0000    0.3501 
1248.0000    0.2096 -999.0000    0.3309 
1248.5000    0.1717 -999.0000    0.3453 
1249.0000    0.1452 -999.0000    0.3465 
1249.5000    0.1385 -999.0000    0.3414 
1250.0000    0.1248 -999.0000    0.2923 
1250.5000    0.1390 -999.0000    0.3583 
1251.0000    0.1578 -999.0000    0.3802 
1251.5000    0.1753 -999.0000    0.3794 
1252.0000    0.1769 -999.0000    0.3818 
1252.5000    0.1665 -999.0000    0.3741 
1253.0000    0.1566 -999.0000    0.3687 
1253.5000    0.1658 -999.0000    0.3537 
1254.0000    0.2027 -999.0000    0.3367 
1254.5000    0.2224 -999.0000    0.3394 
1255.0000    0.2116 -999.0000    0.3703 
1255.5000    0.1789 -999.0000    0.3737 
1256.0000    0.1430 -999.0000    0.3550 
1256.5000    0.1272 -999.0000    0.3887 
1257.0000    0.1199 -999.0000    0.4010 
1257.5000    0.1261 -999.0000    0.3985 
1258.0000    0.1419 -999.0000    0.3883 
1258.5000    0.1489 -999.0000    0.3847 
1259.0000    0.1268 -999.0000    0.4002 
1259.5000    0.1060 -999.0000    0.4264 
1260.0000    0.1172 -999.0000    0.4259 
1260.5000    0.1316 -999.0000    0.4117 
1261.0000    0.1451 -999.0000    0.4110 
1261.5000    0.1790 -999.0000    0.3938 
1262.0000    0.2165 -999.0000    0.3765 
1262.5000    0.2156 -999.0000    0.3519 
1263.0000    0.2035 -999.0000    0.3499 
1263.5000    0.1971 -999.0000    0.3704 
1264.0000    0.1957 -999.0000    0.3742 
1264.5000    0.2087 -999.0000    0.3756 
1265.0000    0.2103 -999.0000    0.3613 
1265.5000    0.2076 -999.0000    0.3543 
1266.0000    0.2163 -999.0000    0.3793 
1266.5000    0.2175 -999.0000    0.3634 
1267.0000    0.2308 -999.0000    0.3636 
1267.5000    0.2319 -999.0000    0.3650 
1268.0000    0.2150 -999.0000    0.3576 
1268.5000    0.2044 -999.0000    0.3828 
1269.0000    0.1814 -999.0000    0.3854 
1269.5000    0.1694 -999.0000    0.4188 
1270.0000    0.1525 -999.0000    0.4285 
1270.5000    0.1328 -999.0000    0.4171 
1271.0000    0.1376 -999.0000    0.4592 
1271.5000    0.1211 -999.0000    0.4513 
1272.0000    0.1119 -999.0000    0.4461 
1272.5000    0.1273 -999.0000    0.4221 
1273.0000    0.1269 -999.0000    0.4309 
1273.5000    0.1064 -999.0000    0.4335 
1274.0000    0.0994 -999.0000    0.4142 
1274.5000    0.1183 -999.0000    0.4038 
1275.0000    0.1626 -999.0000    0.3738 
1275.5000    0.1969 -999.0000    0.3339 
1276.0000    0.2150 -999.0000    0.3306 
1276.5000    0.2258 -999.0000    0.3388 
1277.0000    0.2244 -999.0000    0.3098 
1277.5000    0.2302 -999.0000    0.3133 
1278.0000    0.2379 -999.0000    0.3459 
1278.5000    0.2404 -999.0000    0.3818 
1279.0000    0.2306 -999.0000    0.3804 
1279.5000    0.2469 -999.0000    0.4033 
1280.0000    0.2527 -999.0000    0.4032 
1280.5000    0.2469 -999.0000    0.3962 
1281.0000    0.2457 -999.0000    0.3935 
1281.5000    0.2514 -999.0000    0.3960 
1282.0000    0.2591 -999.0000    0.4113 
1282.5000    0.2557 -999.0000    0.4127 
1283.0000    0.2516 -999.0000    0.3992 
1283.5000    0.2462 -999.0000    0.4030 
1284.0000    0.2203 -999.0000    0.4071 
1284.5000    0.1971 -999.0000    0.4079 
1285.0000    0.1993 -999.0000    0.4015 
1285.5000    0.2194 -999.0000    0.3900 
1286.0000    0.2387 -999.0000    0.3778 
1286.5000    0.2492 -999.0000    0.3888 
1287.0000    0.2551 -999.0000    0.3992 
1287.5000    0.2691 -999.0000    0.3938 
1288.0000    0.2771 -999.0000    0.3858 
1288.5000    0.2701 -999.0000    0.3812 
1289.0000    0.2547 -999.0000    0.3910 
1289.5000    0.2041 -999.0000    0.3907 
1290.0000    0.1514 -999.0000    0.3948 
1290.5000    0.1283 -999.0000    0.4172 
1291.0000    0.1240 -999.0000    0.4278 
1291.5000    0.1168 -999.0000    0.4511 
1292.0000    0.0913 -999.0000    0.4419 
1292.5000    0.0863 -999.0000    0.4413 
1293.0000    0.0896 -999.0000    0.4195 
1293.5000    0.1018 -999.0000    0.4154 
1294.0000    0.1265 -999.0000    0.4379 
1294.5000    0.1525 -999.0000    0.4300 
1295.0000    0.1779 -999.0000    0.3900 
1295.5000    0.2107 -999.0000    0.4028 
1296.0000    0.2091 -999.0000    0.4019 
1296.5000    0.1983 -999.0000    0.4047 
1297.0000    0.2018 -999.0000    0.3868 
1297.5000    0.2235 -999.0000    0.3819 
1298.0000    0.2339 -999.0000    0.3782 
1298.5000    0.2415 -999.0000    0.3904 
1299.0000    0.2483 -999.0000    0.4154 
1299.5000    0.2367 -999.0000    0.4106 
1300.0000    0.2341 -999.0000    0.3987 
1300.5000    0.2488 -999.0000    0.4056 
1301.0000    0.2231 -999.0000    0.3974 
1301.5000    0.1623 -999.0000    0.4007 
1302.0000    0.1275 -999.0000    0.4323 
1302.5000    0.1483 -999.0000    0.4919 
1303.0000    0.1229 -999.0000    0.4930 
1303.5000    0.0231 -999.0000    1.0000 
1304.0000    0.0074 -999.0000    1.0000 
1304.5000    0.0606 -999.0000    1.0000 
1305.0000    0.0820 -999.0000    1.0000 
1305.5000    0.0741 -999.0000    1.0000 
1306.0000    0.0157 -999.0000    1.0000 
1306.5000    0.0001 -999.0000    1.0000 
1307.0000    0.0001 -999.0000    1.0000 
1307.5000    0.0001 -999.0000    1.0000 
1308.0000    0.0024 -999.0000    1.0000 
1308.5000    0.0017 -999.0000    1.0000 
1309.0000    0.0072 -999.0000    1.0000 
1309.5000    0.0058 -999.0000    1.0000 
