~VERSION INFORMATION
 VERS.                 2.0:   CWLS LOG ASCII STANDARD - VERSION 2.0
 WRAP.                  NO:   SINGLE LINE PER DEPTH STEP
 CREA.                 04/15/2020 08:51:23
#CREATED USING IP VERSION 4.5.2018.127 BY RODRIGC1 ON 04/15/2020 08:51:23
~WELL INFORMATION
#MNEM.UNIT       DATA                          DESCRIPTION MNEMONIC
#---------      ---------------------------   --------------------------
 STRT    .FT        330.0000                  : START DEPTH
 STOP    .FT        5034.0000                 : STOP DEPTH
 STEP    .FT        0.5000                    : STEP VALUE
 NULL    .      -999.0000                     : NULL VALUE
 DATE    .      04/15/2020                    : LAS file Creation Date
 WELL   .      CIRA-3900               : Well Name
 COM1   .      Original database: Rosy : Well Comment
 COMP   .      ECOPETROL S.A.          : Company
 FLD    .      LA CIRA INFANTAS        : Field
 STATE  .      SANTANDER               : State
 COUNT  .      COLOMBIA                : Country
 API    .      3900                    : API Number
 UWI    .      CIRA3900                : Unique Well Identifier (UWI)
 LOC    .      SURFACE COORDENATES     : Location
 TOWN   .      N/A                     : Township
 SCT    .      N/A                     : Section
 RANG   .      N/A                     : Range
 PDAT   .      GL                      : Permanent Datum
 EPDAT  .      307.1000                : Elevation of Permanent Datum
 LGMEA  .      DF                      : Log Measured from
 DRMEA  .      DF                      : Drill Measured From
 APDAT  .      16.0000                 : Elevation Above Permanent Datum
 KB     .      323.1000                : KB Elevation
 DF     .      323.1000                : DF Elevation
 GL     .      307.1000                : GL Elevation
 RWS    .      -999                    : Def_Rw
 WST    .      -999                    : Def_Rwt
 UTMZ   .      31                      : UTM Zone
 CNTY   .      BMEJA                   : County
 PROV   .      BARRANCABERMEJA         : Province
 SRVC   .      SCH                     : Contractor
 GDAT   .      WGS 84                  : Geodatum
 LONG   .      0                       : Longitude
 LATI   .      0                       : Latitude
 COORDIN.                              : Grid System
 XCOORD .                              : X or East-West Coordinate
 YCOORD .                              : Y or North-South Coordinate
~CURVE INFORMATION
#MNEM              UNIT       API CODE   Curve Type Comments
#----------  --------------- ----------  ---------- -----------
 DEPTH      .FT                        : Depth       
 PHIE       .Dec                       : Phi         
 K_3104     .                          :             
 SW         .Dec                       : Sw          
~A  DEPTH    PHIE     K_3104      SW    
# ...
2486.0000    0.2776 -999.0000    0.4538 
2486.5000    0.2847 -999.0000    0.4133 
2487.0000    0.3374 -999.0000    0.4226 
2487.5000    0.1499 -999.0000    0.6392 
2488.0000    0.0653 -999.0000    1.0000 
2488.5000    0.0751 -999.0000    1.0000 
2489.0000    0.0954 -999.0000    1.0000 
2489.5000    0.0937 -999.0000    1.0000 
2490.0000    0.0998 -999.0000    1.0000 
2490.5000    0.1068 -999.0000    0.9885 
2491.0000    0.0930 -999.0000    1.0000 
2491.5000    0.0594 -999.0000    1.0000 
2492.0000    0.0450 -999.0000    1.0000 
2492.5000    0.0706 -999.0000    1.0000 
2493.0000    0.1114 -999.0000    1.0000 
2493.5000    0.1401 -999.0000    1.0000 
2494.0000    0.1745 -999.0000    0.8950 
2494.5000    0.2092 -999.0000    0.8139 
2495.0000    0.1860 -999.0000    0.8252 
2495.5000    0.1502 -999.0000    0.8817 
2496.0000    0.1460 -999.0000    0.8668 
2496.5000    0.1337 -999.0000    0.8217 
2497.0000    0.1239 -999.0000    0.8064 
2497.5000    0.1171 -999.0000    0.8077 
2498.0000    0.0951 -999.0000    0.8388 
2498.5000    0.0811 -999.0000    0.8747 
2499.0000    0.0711 -999.0000    0.8815 
2499.5000    0.0433 -999.0000    1.0000 
2500.0000    0.0332 -999.0000    1.0000 
2500.5000    0.0826 -999.0000    0.6476 
2501.0000    0.1326 -999.0000    0.5427 
2501.5000    0.1234 -999.0000    0.5270 
2502.0000    0.1182 -999.0000    0.5454 
2502.5000    0.1356 -999.0000    0.5128 
2503.0000    0.1589 -999.0000    0.4861 
2503.5000    0.1618 -999.0000    0.4737 
2504.0000    0.1322 -999.0000    0.5069 
2504.5000    0.0980 -999.0000    0.6101 
2505.0000    0.0816 -999.0000    0.5979 
2505.5000    0.0734 -999.0000    0.6448 
2506.0000    0.0810 -999.0000    0.5548 
2506.5000    0.1962 -999.0000    0.4328 
2507.0000    0.2961 -999.0000    0.3620 
2507.5000    0.2883 -999.0000    0.3962 
2508.0000    0.2177 -999.0000    0.5230 
2508.5000    0.1496 -999.0000    0.7637 
2509.0000    0.1369 -999.0000    0.8035 
2509.5000    0.0098 -999.0000    1.0000 
2510.0000    0.1457 -999.0000    0.6292 
2510.5000    0.3099 -999.0000    0.4035 
2511.0000    0.2706 -999.0000    0.3857 
2511.5000    0.2645 -999.0000    0.3271 
2512.0000    0.2693 -999.0000    0.3061 
2512.5000    0.1901 -999.0000    0.4170 
2513.0000    0.0244 -999.0000    1.0000 
2513.5000    0.1214 -999.0000    0.5611 
2514.0000    0.1761 -999.0000    0.4657 
2514.5000    0.2035 -999.0000    0.3582 
2515.0000    0.2247 -999.0000    0.4229 
2515.5000    0.1402 -999.0000    0.4044 
2516.0000    0.1661 -999.0000    0.3279 
2516.5000    0.2130 -999.0000    0.3300 
2517.0000    0.2067 -999.0000    0.3244 
2517.5000    0.1718 -999.0000    0.3064 
2518.0000    0.1948 -999.0000    0.3406 
2518.5000    0.2149 -999.0000    0.3333 
2519.0000    0.1963 -999.0000    0.3440 
2519.5000    0.2055 -999.0000    0.3567 
2520.0000    0.2472 -999.0000    0.3536 
2520.5000    0.2640 -999.0000    0.3127 
2521.0000    0.3048 -999.0000    0.3343 
2521.5000    0.3341 -999.0000    0.3537 
2522.0000    0.2686 -999.0000    0.3146 
2522.5000    0.2575 -999.0000    0.3090 
2523.0000    0.2631 -999.0000    0.3025 
2523.5000    0.3247 -999.0000    0.3548 
2524.0000    0.2803 -999.0000    0.3411 
2524.5000    0.2766 -999.0000    0.3441 
2525.0000    0.2670 -999.0000    0.3387 
2525.5000    0.1186 -999.0000    0.4095 
2526.0000    0.0952 -999.0000    0.6768 
2526.5000    0.0604 -999.0000    0.6892 
2527.0000    0.0769 -999.0000    0.5376 
2527.5000    0.1041 -999.0000    0.6809 
2528.0000    0.1143 -999.0000    0.7125 
2528.5000    0.1659 -999.0000    0.5879 
2529.0000    0.1699 -999.0000    0.6104 
2529.5000    0.0902 -999.0000    0.8954 
2530.0000    0.0804 -999.0000    0.9770 
2530.5000    0.0966 -999.0000    0.9078 
2531.0000    0.0688 -999.0000    1.0000 
2531.5000    0.0457 -999.0000    1.0000 
2532.0000    0.0531 -999.0000    1.0000 
2532.5000    0.0755 -999.0000    1.0000 
2533.0000    0.0902 -999.0000    1.0000 
2533.5000    0.0868 -999.0000    1.0000 
2534.0000    0.0676 -999.0000    1.0000 
2534.5000    0.0868 -999.0000    1.0000 
2535.0000    0.1322 -999.0000    1.0000 
2535.5000    0.1680 -999.0000    1.0000 
2536.0000    0.1708 -999.0000    1.0000 
2536.5000    0.1820 -999.0000    1.0000 
2537.0000    0.1895 -999.0000    1.0000 
2537.5000    0.1831 -999.0000    1.0000 
2538.0000    0.1854 -999.0000    1.0000 
2538.5000    0.2003 -999.0000    0.9723 
2539.0000    0.2121 -999.0000    0.9050 
2539.5000    0.2252 -999.0000    0.8501 
2540.0000    0.2150 -999.0000    0.8265 
2540.5000    0.1912 -999.0000    0.8411 
2541.0000    0.1719 -999.0000    0.8815 
2541.5000    0.1600 -999.0000    0.9019 
2542.0000    0.1716 -999.0000    0.8680 
2542.5000    0.1778 -999.0000    0.8075 
2543.0000    0.1806 -999.0000    0.7819 
2543.5000    0.1604 -999.0000    0.7860 
2544.0000    0.1085 -999.0000    0.8525 
2544.5000    0.0590 -999.0000    1.0000 
2545.0000    0.0353 -999.0000    1.0000 
2545.5000    0.0315 -999.0000    1.0000 
2546.0000    0.0433 -999.0000    1.0000 
2546.5000    0.0418 -999.0000    1.0000 
2547.0000    0.0275 -999.0000    1.0000 
2547.5000    0.0307 -999.0000    1.0000 
2548.0000    0.0499 -999.0000    1.0000 
2548.5000    0.0702 -999.0000    0.9333 
2549.0000    0.0548 -999.0000    1.0000 
2549.5000    0.0289 -999.0000    1.0000 
2550.0000    0.0049 -999.0000    1.0000 
2550.5000    0.0124 -999.0000    1.0000 
2551.0000    0.0492 -999.0000    1.0000 
2551.5000    0.1070 -999.0000    0.9899 
2552.0000    0.1282 -999.0000    0.9231 
2552.5000    0.1126 -999.0000    1.0000 
2553.0000    0.0857 -999.0000    1.0000 
2553.5000    0.0839 -999.0000    1.0000 
2554.0000    0.1141 -999.0000    1.0000 
2554.5000    0.1381 -999.0000    1.0000 
2555.0000    0.1524 -999.0000    0.9987 
2555.5000    0.1777 -999.0000    0.9257 
2556.0000    0.1983 -999.0000    0.8964 
2556.5000    0.1832 -999.0000    0.9417 
2557.0000    0.1828 -999.0000    0.9544 
2557.5000    0.1976 -999.0000    0.8933 
2558.0000    0.2101 -999.0000    0.8548 
2558.5000    0.2014 -999.0000    0.8622 
2559.0000    0.1805 -999.0000    0.8471 
2559.5000    0.1793 -999.0000    0.7510 
2560.0000    0.2005 -999.0000    0.6250 
2560.5000    0.1986 -999.0000    0.5216 
2561.0000    0.1741 -999.0000    0.5197 
2561.5000    0.1582 -999.0000    0.5799 
2562.0000    0.1879 -999.0000    0.5342 
2562.5000    0.2590 -999.0000    0.5355 
2563.0000    0.2083 -999.0000    0.5867 
2563.5000    0.1094 -999.0000    0.8545 
2564.0000    0.0646 -999.0000    1.0000 
2564.5000    0.0646 -999.0000    1.0000 
2565.0000    0.0926 -999.0000    1.0000 
2565.5000    0.1536 -999.0000    0.9388 
2566.0000    0.1912 -999.0000    0.8094 
2566.5000    0.2024 -999.0000    0.7746 
2567.0000    0.1752 -999.0000    0.8025 
2567.5000    0.1289 -999.0000    0.9341 
2568.0000    0.0902 -999.0000    1.0000 
2568.5000    0.0958 -999.0000    1.0000 
2569.0000    0.1257 -999.0000    0.9162 
2569.5000    0.1372 -999.0000    0.8134 
2570.0000    0.1424 -999.0000    0.7904 
2570.5000    0.1305 -999.0000    0.8146 
2571.0000    0.0931 -999.0000    0.8852 
2571.5000    0.1208 -999.0000    0.6736 
2572.0000    0.3065 -999.0000    0.4702 
2572.5000    0.2515 -999.0000    0.3971 
2573.0000    0.3768 -999.0000    0.4048 
2573.5000    0.2115 -999.0000    0.4618 
2574.0000    0.1437 -999.0000    0.6202 
2574.5000    0.0967 -999.0000    0.8218 
2575.0000    0.0444 -999.0000    1.0000 
2575.5000    0.0716 -999.0000    0.7049 
2576.0000    0.1067 -999.0000    0.5176 
2576.5000    0.0958 -999.0000    0.5123 
2577.0000    0.1256 -999.0000    0.5513 
2577.5000    0.2196 -999.0000    0.4479 
2578.0000    0.2872 -999.0000    0.4491 
2578.5000    0.2632 -999.0000    0.4658 
2579.0000    0.2634 -999.0000    0.4822 
2579.5000    0.2744 -999.0000    0.4909 
2580.0000    0.2589 -999.0000    0.5076 
2580.5000    0.2508 -999.0000    0.5080 
2581.0000    0.3103 -999.0000    0.4802 
2581.5000    0.2808 -999.0000    0.3930 
2582.0000    0.2824 -999.0000    0.4124 
2582.5000    0.2113 -999.0000    0.5703 
2583.0000    0.1534 -999.0000    0.8132 
2583.5000    0.1432 -999.0000    0.8991 
