~VERSION INFORMATION
 VERS.                 2.0:   CWLS LOG ASCII STANDARD - VERSION 2.0
 WRAP.                  NO:   SINGLE LINE PER DEPTH STEP
 CREA.                 04/15/2020 08:51:23
#CREATED USING IP VERSION 4.5.2018.127 BY RODRIGC1 ON 04/15/2020 08:51:23
~WELL INFORMATION
#MNEM.UNIT       DATA                          DESCRIPTION MNEMONIC
#---------      ---------------------------   --------------------------
 STRT    .FT        330.0000                  : START DEPTH
 STOP    .FT        5034.0000                 : STOP DEPTH
 STEP    .FT        0.5000                    : STEP VALUE
 NULL    .      -999.0000                     : NULL VALUE
 DATE    .      04/15/2020                    : LAS file Creation Date
 WELL   .      CIRA-3900               : Well Name
 COM1   .      Original database: Rosy : Well Comment
 COMP   .      ECOPETROL S.A.          : Company
 FLD    .      LA CIRA INFANTAS        : Field
 STATE  .      SANTANDER               : State
 COUNT  .      COLOMBIA                : Country
 API    .      3900                    : API Number
 UWI    .      CIRA3900                : Unique Well Identifier (UWI)
 LOC    .      SURFACE COORDENATES     : Location
 TOWN   .      N/A                     : Township
 SCT    .      N/A                     : Section
 RANG   .      N/A                     : Range
 PDAT   .      GL                      : Permanent Datum
 EPDAT  .      307.1000                : Elevation of Permanent Datum
 LGMEA  .      DF                      : Log Measured from
 DRMEA  .      DF                      : Drill Measured From
 APDAT  .      16.0000                 : Elevation Above Permanent Datum
 KB     .      323.1000                : KB Elevation
 DF     .      323.1000                : DF Elevation
 GL     .      307.1000                : GL Elevation
 RWS    .      -999                    : Def_Rw
 WST    .      -999                    : Def_Rwt
 UTMZ   .      31                      : UTM Zone
 CNTY   .      BMEJA                   : County
 PROV   .      BARRANCABERMEJA         : Province
 SRVC   .      SCH                     : Contractor
 GDAT   .      WGS 84                  : Geodatum
 LONG   .      0                       : Longitude
 LATI   .      0                       : Latitude
 COORDIN.                              : Grid System
 XCOORD .                              : X or East-West Coordinate
 YCOORD .                              : Y or North-South Coordinate
~CURVE INFORMATION
#MNEM              UNIT       API CODE   Curve Type Comments
#----------  --------------- ----------  ---------- -----------
 DEPTH      .FT                        : Depth       
 PHIE       .Dec                       : Phi         
 K_3104     .                          :             
 SW         .Dec                       : Sw          
~A  DEPTH    PHIE     K_3104      SW    
# ...
3662.0000    0.0001 -999.0000    1.0000 
3662.5000    0.0001 -999.0000    1.0000 
3663.0000    0.0183 -999.0000    1.0000 
3663.5000    0.0945 -999.0000    0.6166 
3664.0000    0.1221 -999.0000    0.4357 
3664.5000    0.0825 -999.0000    0.7986 
3665.0000    0.0077 -999.0000    1.0000 
3665.5000    0.0015 -999.0000    1.0000 
3666.0000    0.0044 -999.0000    1.0000 
3666.5000    0.1476 -999.0000    0.4750 
3667.0000    0.1993 -999.0000    0.3545 
3667.5000    0.2347 -999.0000    0.3818 
3668.0000    0.0023 -999.0000    1.0000 
3668.5000    0.0281 -999.0000    1.0000 
3669.0000    0.1405 -999.0000    0.3275 
3669.5000    0.1616 -999.0000    0.3332 
3670.0000    0.1143 -999.0000    0.5349 
3670.5000    0.0622 -999.0000    0.6725 
3671.0000    0.0125 -999.0000    1.0000 
3671.5000    0.0012 -999.0000    1.0000 
3672.0000    0.0038 -999.0000    1.0000 
3672.5000    0.0001 -999.0000    1.0000 
3673.0000    0.0001 -999.0000    1.0000 
3673.5000    0.0001 -999.0000    1.0000 
3674.0000    0.0001 -999.0000    1.0000 
3674.5000    0.0474 -999.0000    1.0000 
3675.0000    0.0841 -999.0000    0.8173 
3675.5000    0.0996 -999.0000    0.6990 
3676.0000    0.1200 -999.0000    0.6498 
3676.5000    0.1390 -999.0000    0.6584 
3677.0000    0.1643 -999.0000    0.6583 
3677.5000    0.1769 -999.0000    0.6268 
3678.0000    0.1768 -999.0000    0.5989 
3678.5000    0.1859 -999.0000    0.6453 
3679.0000    0.1680 -999.0000    0.6712 
3679.5000    0.1737 -999.0000    0.6769 
3680.0000    0.1762 -999.0000    0.6742 
3680.5000    0.1697 -999.0000    0.6924 
3681.0000    0.1705 -999.0000    0.6829 
3681.5000    0.1849 -999.0000    0.6402 
3682.0000    0.1857 -999.0000    0.6089 
3682.5000    0.1754 -999.0000    0.6329 
3683.0000    0.1554 -999.0000    0.7024 
3683.5000    0.1363 -999.0000    0.7419 
3684.0000    0.1428 -999.0000    0.6647 
3684.5000    0.1543 -999.0000    0.6250 
3685.0000    0.1411 -999.0000    0.6690 
3685.5000    0.1320 -999.0000    0.6958 
3686.0000    0.1532 -999.0000    0.6301 
3686.5000    0.1724 -999.0000    0.5751 
3687.0000    0.1774 -999.0000    0.5648 
3687.5000    0.1840 -999.0000    0.5668 
3688.0000    0.1787 -999.0000    0.5275 
3688.5000    0.1871 -999.0000    0.4919 
3689.0000    0.1979 -999.0000    0.4674 
3689.5000    0.1984 -999.0000    0.4783 
3690.0000    0.1730 -999.0000    0.5242 
3690.5000    0.1349 -999.0000    0.6370 
3691.0000    0.0929 -999.0000    0.7925 
3691.5000    0.0677 -999.0000    0.9913 
3692.0000    0.0669 -999.0000    1.0000 
3692.5000    0.0632 -999.0000    1.0000 
3693.0000    0.0679 -999.0000    0.9935 
3693.5000    0.0884 -999.0000    0.8684 
3694.0000    0.0927 -999.0000    0.8292 
3694.5000    0.0779 -999.0000    0.9330 
3695.0000    0.0687 -999.0000    1.0000 
3695.5000    0.0869 -999.0000    0.8403 
3696.0000    0.0934 -999.0000    0.7504 
3696.5000    0.0776 -999.0000    0.7898 
3697.0000    0.0959 -999.0000    0.6369 
3697.5000    0.1554 -999.0000    0.5219 
3698.0000    0.1795 -999.0000    0.5419 
3698.5000    0.1488 -999.0000    0.6043 
3699.0000    0.1059 -999.0000    0.7311 
3699.5000    0.0535 -999.0000    0.9559 
3700.0000    0.0223 -999.0000    1.0000 
3700.5000    0.0109 -999.0000    1.0000 
3701.0000    0.0474 -999.0000    0.8017 
3701.5000    0.0672 -999.0000    0.4957 
3702.0000    0.0513 -999.0000    0.4075 
3702.5000    0.0219 -999.0000    0.4674 
3703.0000    0.0025 -999.0000    1.0000 
3703.5000    0.0011 -999.0000    1.0000 
3704.0000    0.0075 -999.0000    1.0000 
3704.5000    0.0309 -999.0000    0.6324 
3705.0000    0.0707 -999.0000    0.4440 
3705.5000    0.0842 -999.0000    0.3976 
3706.0000    0.0744 -999.0000    0.3261 
3706.5000    0.0873 -999.0000    0.3427 
3707.0000    0.0724 -999.0000    0.3734 
3707.5000    0.0556 -999.0000    0.4929 
3708.0000    0.1210 -999.0000    0.4238 
3708.5000    0.1992 -999.0000    0.3994 
3709.0000    0.1474 -999.0000    0.3512 
3709.5000    0.0705 -999.0000    0.3318 
3710.0000    0.0379 -999.0000    0.7141 
3710.5000    0.0089 -999.0000    1.0000 
3711.0000    0.0004 -999.0000    1.0000 
3711.5000    0.0268 -999.0000    1.0000 
3712.0000    0.0338 -999.0000    1.0000 
3712.5000    0.0003 -999.0000    1.0000 
3713.0000    0.0001 -999.0000    1.0000 
3713.5000    0.0006 -999.0000    1.0000 
3714.0000    0.0192 -999.0000    1.0000 
3714.5000    0.1881 -999.0000    0.5174 
3715.0000    0.0001 -999.0000    1.0000 
3715.5000    0.0025 -999.0000    1.0000 
3716.0000    0.0007 -999.0000    1.0000 
3716.5000    0.0022 -999.0000    1.0000 
3717.0000    0.0001 -999.0000    1.0000 
3717.5000    0.0002 -999.0000    1.0000 
3718.0000    0.0076 -999.0000    1.0000 
3718.5000    0.0058 -999.0000    1.0000 
3719.0000    0.1747 -999.0000    0.3470 
3719.5000    0.1741 -999.0000    0.3469 
3720.0000    0.0530 -999.0000    1.0000 
3720.5000    0.0001 -999.0000    1.0000 
3721.0000    0.0001 -999.0000    1.0000 
3721.5000    0.0021 -999.0000    1.0000 
3722.0000    0.0066 -999.0000    1.0000 
3722.5000    0.0181 -999.0000    1.0000 
3723.0000    0.0289 -999.0000    1.0000 
3723.5000    0.0300 -999.0000    1.0000 
3724.0000    0.2323 -999.0000    0.3328 
3724.5000    0.2036 -999.0000    0.3381 
3725.0000    0.1410 -999.0000    0.4741 
3725.5000    0.0517 -999.0000    1.0000 
3726.0000    0.0843 -999.0000    1.0000 
3726.5000    0.1920 -999.0000    0.3203 
3727.0000    0.0374 -999.0000    1.0000 
3727.5000    0.0001 -999.0000    1.0000 
3728.0000    0.0001 -999.0000    1.0000 
3728.5000    0.0001 -999.0000    1.0000 
3729.0000    0.0268 -999.0000    1.0000 
3729.5000    0.0013 -999.0000    1.0000 
3730.0000    0.0035 -999.0000    1.0000 
3730.5000    0.0145 -999.0000    1.0000 
3731.0000    0.0968 -999.0000    0.6723 
3731.5000    0.0754 -999.0000    0.9011 
3732.0000    0.0494 -999.0000    1.0000 
3732.5000    0.0001 -999.0000    1.0000 
3733.0000    0.0001 -999.0000    1.0000 
3733.5000    0.0001 -999.0000    1.0000 
3734.0000    0.0001 -999.0000    1.0000 
3734.5000    0.0001 -999.0000    1.0000 
3735.0000    0.0001 -999.0000    0.0010 
3735.5000    0.0001 -999.0000    0.0010 
3736.0000    0.0001 -999.0000    0.0010 
3736.5000    0.0001 -999.0000    0.0010 
3737.0000    0.0092 -999.0000    0.0010 
3737.5000    0.0001 -999.0000    0.0010 
3738.0000    0.0001 -999.0000    1.0000 
3738.5000    0.0001 -999.0000    1.0000 
3739.0000    0.0001 -999.0000    1.0000 
3739.5000    0.0891 -999.0000    0.4948 
3740.0000    0.1106 -999.0000    0.4147 
3740.5000    0.0967 -999.0000    0.4287 
3741.0000    0.1052 -999.0000    0.4803 
3741.5000    0.1172 -999.0000    0.5057 
3742.0000    0.1078 -999.0000    0.5772 
3742.5000    0.0902 -999.0000    0.6524 
3743.0000    0.0987 -999.0000    0.6145 
3743.5000    0.1091 -999.0000    0.5573 
3744.0000    0.1072 -999.0000    0.5297 
3744.5000    0.1178 -999.0000    0.5111 
3745.0000    0.1260 -999.0000    0.4366 
3745.5000    0.1414 -999.0000    0.4076 
3746.0000    0.1351 -999.0000    0.3983 
3746.5000    0.1065 -999.0000    0.3984 
3747.0000    0.0774 -999.0000    0.3570 
3747.5000    0.0598 -999.0000    0.2880 
3748.0000    0.0661 -999.0000    0.3001 
3748.5000    0.1373 -999.0000    0.3565 
3749.0000    0.1816 -999.0000    0.2994 
3749.5000    0.1002 -999.0000    0.4758 
3750.0000    0.0078 -999.0000    1.0000 
3750.5000    0.0177 -999.0000    1.0000 
3751.0000    0.0411 -999.0000    0.3760 
3751.5000    0.0480 -999.0000    0.1537 
3752.0000    0.1058 -999.0000    0.1878 
3752.5000    0.1334 -999.0000    0.2068 
3753.0000    0.0871 -999.0000    0.1610 
3753.5000    0.0409 -999.0000    0.0669 
3754.0000    0.0466 -999.0000    0.1921 
3754.5000    0.0829 -999.0000    0.3168 
3755.0000    0.1029 -999.0000    0.3477 
3755.5000    0.0986 -999.0000    0.3749 
3756.0000    0.0964 -999.0000    0.4124 
3756.5000    0.1012 -999.0000    0.4269 
3757.0000    0.1086 -999.0000    0.4342 
3757.5000    0.1237 -999.0000    0.4461 
3758.0000    0.1340 -999.0000    0.4426 
3758.5000    0.1376 -999.0000    0.4410 
3759.0000    0.1383 -999.0000    0.4607 
3759.5000    0.1216 -999.0000    0.4741 
