~VERSION INFORMATION
 VERS.                 2.0:   CWLS LOG ASCII STANDARD - VERSION 2.0
 WRAP.                  NO:   SINGLE LINE PER DEPTH STEP
 CREA.                 04/15/2020 08:51:23
#CREATED USING IP VERSION 4.5.2018.127 BY RODRIGC1 ON 04/15/2020 08:51:23
~WELL INFORMATION
#MNEM.UNIT       DATA                          DESCRIPTION MNEMONIC
#---------      ---------------------------   --------------------------
 STRT    .FT        330.0000                  : START DEPTH
 STOP    .FT        5034.0000                 : STOP DEPTH
 STEP    .FT        0.5000                    : STEP VALUE
 NULL    .      -999.0000                     : NULL VALUE
 DATE    .      04/15/2020                    : LAS file Creation Date
 WELL   .      CIRA-3900               : Well Name
 COM1   .      Original database: Rosy : Well Comment
 COMP   .      ECOPETROL S.A.          : Company
 FLD    .      LA CIRA INFANTAS        : Field
 STATE  .      SANTANDER               : State
 COUNT  .      COLOMBIA                : Country
 API    .      3900                    : API Number
 UWI    .      CIRA3900                : Unique Well Identifier (UWI)
 LOC    .      SURFACE COORDENATES     : Location
 TOWN   .      N/A                     : Township
 SCT    .      N/A                     : Section
 RANG   .      N/A                     : Range
 PDAT   .      GL                      : Permanent Datum
 EPDAT  .      307.1000                : Elevation of Permanent Datum
 LGMEA  .      DF                      : Log Measured from
 DRMEA  .      DF                      : Drill Measured From
 APDAT  .      16.0000                 : Elevation Above Permanent Datum
 KB     .      323.1000                : KB Elevation
 DF     .      323.1000                : DF Elevation
 GL     .      307.1000                : GL Elevation
 RWS    .      -999                    : Def_Rw
 WST    .      -999                    : Def_Rwt
 UTMZ   .      31                      : UTM Zone
 CNTY   .      BMEJA                   : County
 PROV   .      BARRANCABERMEJA         : Province
 SRVC   .      SCH                     : Contractor
 GDAT   .      WGS 84                  : Geodatum
 LONG   .      0                       : Longitude
 LATI   .      0                       : Latitude
 COORDIN.                              : Grid System
 XCOORD .                              : X or East-West Coordinate
 YCOORD .                              : Y or North-South Coordinate
~CURVE INFORMATION
#MNEM              UNIT       API CODE   Curve Type Comments
#----------  --------------- ----------  ---------- -----------
 DEPTH      .FT                        : Depth       
 PHIE       .Dec                       : Phi         
 K_3104     .                          :             
 SW         .Dec                       : Sw          
~A  DEPTH    PHIE     K_3104      SW    
# ...
4642.0000    0.0001    1.5902    1.0000 
4642.5000    0.0001    1.3774    1.0000 
4643.0000    0.0001    1.0995    1.0000 
4643.5000    0.0001    1.0884    1.0000 
4644.0000    0.0001    1.1355    1.0000 
4644.5000    0.0001    1.2054    1.0000 
4645.0000    0.0001    1.2925    1.0000 
4645.5000    0.0001    1.3035    1.0000 
4646.0000    0.0001    1.2935    1.0000 
4646.5000    0.0001    1.2304    1.0000 
4647.0000    0.0001    1.2298    1.0000 
4647.5000    0.0001    1.2887    1.0000 
4648.0000    0.0001    1.1830    1.0000 
4648.5000    0.0001    1.1618    1.0000 
4649.0000    0.0001    1.2009    1.0000 
4649.5000    0.0001    1.2895    1.0000 
4650.0000    0.0001    1.2168    1.0000 
4650.5000    0.0001    1.3220    1.0000 
4651.0000    0.0001    1.3922    1.0000 
4651.5000    0.0170    1.3926    1.0000 
4652.0000    0.0134    1.1914    0.9727 
4652.5000    0.0076    1.2739    1.0000 
4653.0000    0.0070    1.2289    1.0000 
4653.5000    0.0041    1.2227    1.0000 
4654.0000    0.0024    1.2983    1.0000 
4654.5000    0.0001    1.3876    1.0000 
4655.0000    0.0001    1.5715    1.0000 
4655.5000    0.0001    1.5603    1.0000 
4656.0000    0.0001    1.7147    1.0000 
4656.5000    0.0001    1.8570    1.0000 
4657.0000    0.0001    1.8916    1.0000 
4657.5000    0.0001    1.9101    1.0000 
4658.0000    0.0004    2.1560    1.0000 
4658.5000    0.0001    2.2256    1.0000 
4659.0000    0.0001    2.2089    1.0000 
4659.5000    0.0001    2.2446    1.0000 
4660.0000    0.0001    2.1823    1.0000 
4660.5000    0.0005    2.2691    1.0000 
4661.0000    0.0002    2.1686    1.0000 
4661.5000    0.0006    2.1757    1.0000 
4662.0000    0.0001    2.0906    1.0000 
4662.5000    0.0001    1.9736    1.0000 
4663.0000    0.0001    1.8781    1.0000 
4663.5000    0.0001    1.8911    1.0000 
4664.0000    0.0001    1.7394    1.0000 
4664.5000    0.0009    1.6907    1.0000 
4665.0000    0.0001    1.5308    1.0000 
4665.5000    0.0001    1.3521    1.0000 
4666.0000    0.0001    1.2873    1.0000 
4666.5000    0.0001    1.2946    1.0000 
4667.0000    0.0001    1.2079    1.0000 
4667.5000    0.0001    1.1524    1.0000 
4668.0000    0.0001    1.1083    1.0000 
4668.5000    0.0001    1.0871    1.0000 
4669.0000    0.0001    1.0559    1.0000 
4669.5000    0.0001    1.0580    1.0000 
4670.0000    0.0001    1.0344    1.0000 
4670.5000    0.0001    0.9453    1.0000 
4671.0000    0.0001    0.9168    1.0000 
4671.5000    0.0001    0.8883    1.0000 
4672.0000    0.0001    0.9115    1.0000 
4672.5000    0.0001    0.9606    1.0000 
4673.0000    0.0001    1.1207    1.0000 
4673.5000    0.0001    1.6468    1.0000 
4674.0000    0.0188    2.1756    1.0000 
4674.5000    0.0679    2.3178    1.0000 
4675.0000    0.0006    1.6580    1.0000 
4675.5000    0.0001    1.2983    1.0000 
4676.0000    0.0001    1.3147    1.0000 
4676.5000    0.0001    1.5813    1.0000 
4677.0000    0.0001    1.5494    1.0000 
4677.5000    0.0001    1.5245    1.0000 
4678.0000    0.0001    1.4890    1.0000 
4678.5000    0.0001    1.4791    1.0000 
4679.0000    0.0001    1.4943    1.0000 
4679.5000    0.0001    1.5874    1.0000 
4680.0000    0.0001    1.7088    1.0000 
4680.5000    0.0001    1.8162    1.0000 
4681.0000    0.0001    1.9221    1.0000 
4681.5000    0.0001    2.1287    1.0000 
4682.0000    0.0001    2.1085    1.0000 
4682.5000    0.0017    2.1952    1.0000 
4683.0000    0.0003    2.0264    1.0000 
4683.5000    0.0012    1.9453    1.0000 
4684.0000    0.0007    1.9919    1.0000 
4684.5000    0.0001    2.0130    1.0000 
4685.0000    0.0001    1.9317    1.0000 
4685.5000    0.0001    1.9537    1.0000 
4686.0000    0.0001    1.9596    1.0000 
4686.5000    0.0001    1.9662    1.0000 
4687.0000    0.0001    1.9824    1.0000 
4687.5000    0.0001    2.0533    1.0000 
4688.0000    0.0001    2.0027    1.0000 
4688.5000    0.0001    2.1420    1.0000 
4689.0000    0.0001    2.1883    1.0000 
4689.5000    0.0001    2.0653    1.0000 
4690.0000    0.0001    1.8446    1.0000 
4690.5000    0.0001    1.6389    1.0000 
4691.0000    0.0001    1.4492    1.0000 
4691.5000    0.0001    1.3103    1.0000 
4692.0000    0.0001    1.2372    1.0000 
4692.5000    0.0001    1.2264    1.0000 
4693.0000    0.0001    1.3126    1.0000 
4693.5000    0.0001    1.5103    1.0000 
4694.0000    0.0001    1.7805    1.0000 
4694.5000    0.0001    1.9424    1.0000 
4695.0000    0.0001    1.8030    1.0000 
4695.5000    0.0001    1.6815    1.0000 
4696.0000    0.0001    1.6474    1.0000 
4696.5000    0.0001    1.6035    1.0000 
4697.0000    0.0001    1.5459    1.0000 
4697.5000    0.0001    1.4073    1.0000 
4698.0000    0.0001    1.2800    1.0000 
4698.5000    0.0001    1.2145    1.0000 
4699.0000    0.0001    1.2094    1.0000 
4699.5000    0.0001    1.1041    1.0000 
4700.0000    0.0001    0.9670    1.0000 
4700.5000    0.0001    0.8903    1.0000 
4701.0000    0.0001    0.8822    1.0000 
4701.5000    0.0001    0.9454    1.0000 
4702.0000    0.0001    1.0246    1.0000 
4702.5000    0.0001    1.1551    1.0000 
4703.0000    0.0001    1.1510    1.0000 
4703.5000    0.0001    1.1345    0.0010 
4704.0000    0.0001    1.1275    1.0000 
4704.5000    0.0001    1.1689    1.0000 
4705.0000    0.0001    1.3453    1.0000 
4705.5000    0.0064    1.4991    1.0000 
4706.0000    0.0087    1.5545    1.0000 
4706.5000    0.0053    1.4164    1.0000 
4707.0000    0.0012    1.2045    1.0000 
4707.5000    0.0001    1.0530    1.0000 
4708.0000    0.0001    1.0049    1.0000 
4708.5000    0.0001    0.9578    1.0000 
4709.0000    0.0001    0.9925    1.0000 
4709.5000    0.0001    1.4221    1.0000 
4710.0000    0.0333    2.3662    1.0000 
4710.5000    0.0446    2.7560    1.0000 
4711.0000    0.0315    2.8994    1.0000 
4711.5000    0.0263    2.9362    1.0000 
4712.0000    0.0744    6.1883    0.8024 
4712.5000    0.0901   15.8643    0.6636 
4713.0000    0.0759   10.9120    0.7425 
4713.5000    0.0713    3.9335    0.9535 
4714.0000    0.0566    2.0995    1.0000 
4714.5000    0.0354    1.3245    1.0000 
4715.0000    0.0184    1.0504    1.0000 
4715.5000    0.0001    0.9107    1.0000 
4716.0000    0.0001    0.9579    1.0000 
4716.5000    0.0001    1.0188    1.0000 
4717.0000    0.0001    1.2196    1.0000 
4717.5000    0.0013    3.3518    1.0000 
4718.0000    0.0686   32.0348    1.0000 
4718.5000    0.1405  255.1222    0.7605 
4719.0000    0.1543  305.1277    0.7588 
4719.5000    0.1479   98.4374    0.7695 
4720.0000    0.1367   22.6738    0.8134 
4720.5000    0.1197   11.2636    0.9118 
4721.0000    0.0990    8.3615    1.0000 
4721.5000    0.0941    9.2810    1.0000 
4722.0000    0.1051   14.8376    1.0000 
4722.5000    0.1143   23.7011    1.0000 
4723.0000    0.1140   30.4625    1.0000 
4723.5000    0.1162   33.4960    1.0000 
4724.0000    0.1338   39.8467    1.0000 
4724.5000    0.1392   47.4791    1.0000 
4725.0000    0.1337   36.8406    1.0000 
4725.5000    0.1356   24.6347    1.0000 
4726.0000    0.1269   18.3464    1.0000 
4726.5000    0.1101   12.9525    1.0000 
4727.0000    0.0989    4.3412    0.9630 
4727.5000    0.0906    1.8086    0.8813 
4728.0000    0.0077    1.0440    1.0000 
4728.5000    0.0001    0.8639    1.0000 
4729.0000    0.0001    0.9682    1.0000 
4729.5000    0.0001    1.2886    1.0000 
4730.0000    0.0001    1.5695    1.0000 
4730.5000    0.0001    1.7330    1.0000 
4731.0000    0.0001    1.8488    1.0000 
4731.5000    0.0001    1.8378    1.0000 
4732.0000    0.0001    1.7471    1.0000 
4732.5000    0.0001    1.6471    1.0000 
4733.0000    0.0001    1.6277    1.0000 
4733.5000    0.0001    1.5125    1.0000 
4734.0000    0.0001    1.3651    1.0000 
4734.5000    0.0001    1.2038    1.0000 
4735.0000    0.0001    1.2672    1.0000 
4735.5000    0.0001    1.2028    1.0000 
4736.0000    0.0001    1.1403    1.0000 
4736.5000    0.0001    1.1107    1.0000 
4737.0000    0.0001    1.2166    1.0000 
4737.5000    0.0001    1.3133    1.0000 
4738.0000    0.0001    1.3615    1.0000 
4738.5000    0.0001    1.5898    1.0000 
4739.0000    0.0001    1.9380    1.0000 
4739.5000    0.0001    2.3689    1.0000 
