~VERSION INFORMATION
 VERS.                 2.0:   CWLS LOG ASCII STANDARD - VERSION 2.0
 WRAP.                  NO:   SINGLE LINE PER DEPTH STEP
 CREA.                 04/15/2020 08:51:23
#CREATED USING IP VERSION 4.5.2018.127 BY RODRIGC1 ON 04/15/2020 08:51:23
~WELL INFORMATION
#MNEM.UNIT       DATA                          DESCRIPTION MNEMONIC
#---------      ---------------------------   --------------------------
 STRT    .FT        330.0000                  : START DEPTH
 STOP    .FT        5034.0000                 : STOP DEPTH
 STEP    .FT        0.5000                    : STEP VALUE
 NULL    .      -999.0000                     : NULL VALUE
 DATE    .      04/15/2020                    : LAS file Creation Date
 WELL   .      CIRA-3900               : Well Name
 COM1   .      Original database: Rosy : Well Comment
 COMP   .      ECOPETROL S.A.          : Company
 FLD    .      LA CIRA INFANTAS        : Field
 STATE  .      SANTANDER               : State
 COUNT  .      COLOMBIA                : Country
 API    .      3900                    : API Number
 UWI    .      CIRA3900                : Unique Well Identifier (UWI)
 LOC    .      SURFACE COORDENATES     : Location
 TOWN   .      N/A                     : Township
 SCT    .      N/A                     : Section
 RANG   .      N/A                     : Range
 PDAT   .      GL                      : Permanent Datum
 EPDAT  .      307.1000                : Elevation of Permanent Datum
 LGMEA  .      DF                      : Log Measured from
 DRMEA  .      DF                      : Drill Measured From
 APDAT  .      16.0000                 : Elevation Above Permanent Datum
 KB     .      323.1000                : KB Elevation
 DF     .      323.1000                : DF Elevation
 GL     .      307.1000                : GL Elevation
 RWS    .      -999                    : Def_Rw
 WST    .      -999                    : Def_Rwt
 UTMZ   .      31                      : UTM Zone
 CNTY   .      BMEJA                   : County
 PROV   .      BARRANCABERMEJA         : Province
 SRVC   .      SCH                     : Contractor
 GDAT   .      WGS 84                  : Geodatum
 LONG   .      0                       : Longitude
 LATI   .      0                       : Latitude
 COORDIN.                              : Grid System
 XCOORD .                              : X or East-West Coordinate
 YCOORD .                              : Y or North-South Coordinate
~CURVE INFORMATION
#MNEM              UNIT       API CODE   Curve Type Comments
#----------  --------------- ----------  ---------- -----------
 DEPTH      .FT                        : Depth       
 PHIE       .Dec                       : Phi         
 K_3104     .                          :             
 SW         .Dec                       : Sw          
~A  DEPTH    PHIE     K_3104      SW    
# ...
4936.0000    0.0002    1.8797    1.0000 
4936.5000    0.0001    1.8266    1.0000 
4937.0000    0.0001    1.6445    1.0000 
4937.5000    0.0001    1.5865    1.0000 
4938.0000    0.0001    1.4655    1.0000 
4938.5000    0.0001    1.4256    1.0000 
4939.0000    0.0001    1.3544    1.0000 
4939.5000    0.0001    1.3334    1.0000 
4940.0000    0.0001    1.4203    1.0000 
4940.5000    0.0001    1.5091    1.0000 
4941.0000    0.0001    1.5295    1.0000 
4941.5000    0.0001    1.6263    1.0000 
4942.0000    0.0001    1.7546    1.0000 
4942.5000    0.0001    1.7426    1.0000 
4943.0000    0.0001    1.6460    1.0000 
4943.5000    0.0001    1.5787    1.0000 
4944.0000    0.0001    1.4881    1.0000 
4944.5000    0.0001    1.4138    1.0000 
4945.0000    0.0001    1.4184    1.0000 
4945.5000    0.0001    1.3382    1.0000 
4946.0000    0.0009    1.4097    1.0000 
4946.5000    0.0001    1.3441    1.0000 
4947.0000    0.0001    1.2989    1.0000 
4947.5000    0.0001    1.2319    1.0000 
4948.0000    0.0001    1.2586    1.0000 
4948.5000    0.0001    1.2838    1.0000 
4949.0000    0.0001    1.2637    1.0000 
4949.5000    0.0001    1.2474    1.0000 
4950.0000    0.0001    1.2050    1.0000 
4950.5000    0.0001    1.2214    1.0000 
4951.0000    0.0001    1.2648    1.0000 
4951.5000    0.0001    1.1783    1.0000 
4952.0000    0.0001    1.1493    1.0000 
4952.5000    0.0001    1.2299    1.0000 
4953.0000    0.0001    1.2190    1.0000 
4953.5000    0.0001    1.2262    1.0000 
4954.0000    0.0001    1.2800    1.0000 
4954.5000    0.0092    1.2683    1.0000 
4955.0000    0.0169    1.2005    1.0000 
4955.5000    0.0001    1.0838    1.0000 
4956.0000    0.0051    1.1055    1.0000 
4956.5000    0.0267    1.5361    1.0000 
4957.0000    0.0273    1.7582    1.0000 
4957.5000    0.0264    1.4914    1.0000 
4958.0000    0.0155    1.1302    1.0000 
4958.5000    0.0159    1.1003    1.0000 
4959.0000    0.0112    1.2282    1.0000 
4959.5000    0.0123    1.2692    1.0000 
4960.0000    0.0205    1.3455    1.0000 
4960.5000    0.0073    1.2608    1.0000 
4961.0000    0.0055    1.1645    1.0000 
4961.5000    0.0025    1.1354    1.0000 
4962.0000    0.0001    1.1585    1.0000 
4962.5000    0.0001    1.2917    1.0000 
4963.0000    0.0001    1.4121    1.0000 
4963.5000    0.0001    1.5003    1.0000 
4964.0000    0.0001    1.5148    1.0000 
4964.5000    0.0001    1.5747    1.0000 
4965.0000    0.0001    1.5670    1.0000 
4965.5000    0.0001    1.5465    1.0000 
4966.0000    0.0001    1.5262    1.0000 
4966.5000    0.0001    1.5532    1.0000 
4967.0000    0.0001    1.5315    1.0000 
4967.5000    0.0001    1.5462    1.0000 
4968.0000    0.0001    1.5135    1.0000 
4968.5000    0.0001    1.4251    1.0000 
4969.0000    0.0001    1.4891    1.0000 
4969.5000    0.0001    1.4319    1.0000 
4970.0000    0.0023    1.3871    1.0000 
4970.5000    0.0001    1.2740    1.0000 
4971.0000    0.0001    1.1143    1.0000 
4971.5000    0.0001    1.0137    1.0000 
4972.0000    0.0001    1.0576    1.0000 
4972.5000    0.0001    1.1119    1.0000 
4973.0000    0.0001    1.0377    1.0000 
4973.5000    0.0001    1.0451    1.0000 
4974.0000    0.0001    1.1646    1.0000 
4974.5000    0.0086    1.2888    1.0000 
4975.0000    0.0155    1.2683    1.0000 
4975.5000    0.0183    1.1286    1.0000 
4976.0000    0.0083    0.9402    1.0000 
4976.5000    0.0001    0.8471    1.0000 
4977.0000    0.0001    0.8181    1.0000 
4977.5000    0.0001    0.9050    1.0000 
4978.0000    0.0001    1.0547    1.0000 
4978.5000    0.0122    1.2359    1.0000 
4979.0000    0.0156    1.3153    1.0000 
4979.5000    0.0144    1.2150    1.0000 
4980.0000    0.0084    1.0550    1.0000 
4980.5000    0.0001    1.0244    1.0000 
4981.0000    0.0001    0.9752    1.0000 
4981.5000    0.0001    1.0260    1.0000 
4982.0000    0.0001    1.1467    1.0000 
4982.5000    0.0001    1.2867    1.0000 
4983.0000    0.0001    1.2998    1.0000 
4983.5000    0.0001    1.3225    1.0000 
4984.0000    0.0001    1.3443    1.0000 
4984.5000    0.0001    1.3398    1.0000 
4985.0000    0.0001    1.3220    1.0000 
4985.5000    0.0001    1.2917    1.0000 
4986.0000    0.0001    1.2420    1.0000 
4986.5000    0.0001    1.3048    1.0000 
4987.0000    0.0001    1.3267    1.0000 
4987.5000    0.0001    1.3253    1.0000 
4988.0000    0.0001    1.2850    1.0000 
4988.5000    0.0001    1.2528    1.0000 
4989.0000    0.0001    1.1658    1.0000 
4989.5000    0.0001    1.1478    1.0000 
4990.0000    0.0001    1.2257    1.0000 
4990.5000    0.0001    1.3101    1.0000 
4991.0000    0.0001    1.4657    1.0000 
4991.5000    0.0022 -999.0000    1.0000 
4992.0000    0.0067 -999.0000    1.0000 
4992.5000    0.0056 -999.0000    1.0000 
4993.0000    0.0016 -999.0000    1.0000 
4993.5000 -999.0000 -999.0000 -999.0000 
4994.0000 -999.0000 -999.0000 -999.0000 
4994.5000 -999.0000 -999.0000 -999.0000 
4995.0000 -999.0000 -999.0000 -999.0000 
4995.5000 -999.0000 -999.0000 -999.0000 
4996.0000 -999.0000 -999.0000 -999.0000 
4996.5000 -999.0000 -999.0000 -999.0000 
4997.0000 -999.0000 -999.0000 -999.0000 
4997.5000 -999.0000 -999.0000 -999.0000 
4998.0000 -999.0000 -999.0000 -999.0000 
4998.5000 -999.0000 -999.0000 -999.0000 
4999.0000 -999.0000 -999.0000 -999.0000 
4999.5000 -999.0000 -999.0000 -999.0000 
5000.0000 -999.0000 -999.0000 -999.0000 
5000.5000 -999.0000 -999.0000 -999.0000 
5001.0000 -999.0000 -999.0000 -999.0000 
5001.5000 -999.0000 -999.0000 -999.0000 
5002.0000 -999.0000 -999.0000 -999.0000 
5002.5000 -999.0000 -999.0000 -999.0000 
5003.0000 -999.0000 -999.0000 -999.0000 
5003.5000 -999.0000 -999.0000 -999.0000 
5004.0000 -999.0000 -999.0000 -999.0000 
5004.5000 -999.0000 -999.0000 -999.0000 
5005.0000 -999.0000 -999.0000 -999.0000 
5005.5000 -999.0000 -999.0000 -999.0000 
5006.0000 -999.0000 -999.0000 -999.0000 
5006.5000 -999.0000 -999.0000 -999.0000 
5007.0000 -999.0000 -999.0000 -999.0000 
5007.5000 -999.0000 -999.0000 -999.0000 
5008.0000 -999.0000 -999.0000 -999.0000 
5008.5000 -999.0000 -999.0000 -999.0000 
5009.0000 -999.0000 -999.0000 -999.0000 
5009.5000 -999.0000 -999.0000 -999.0000 
5010.0000 -999.0000 -999.0000 -999.0000 
5010.5000 -999.0000 -999.0000 -999.0000 
5011.0000 -999.0000 -999.0000 -999.0000 
5011.5000 -999.0000 -999.0000 -999.0000 
5012.0000 -999.0000 -999.0000 -999.0000 
5012.5000 -999.0000 -999.0000 -999.0000 
5013.0000 -999.0000 -999.0000 -999.0000 
5013.5000 -999.0000 -999.0000 -999.0000 
5014.0000 -999.0000 -999.0000 -999.0000 
5014.5000 -999.0000 -999.0000 -999.0000 
5015.0000 -999.0000 -999.0000 -999.0000 
5015.5000 -999.0000 -999.0000 -999.0000 
5016.0000 -999.0000 -999.0000 -999.0000 
5016.5000 -999.0000 -999.0000 -999.0000 
5017.0000 -999.0000 -999.0000 -999.0000 
5017.5000 -999.0000 -999.0000 -999.0000 
5018.0000 -999.0000 -999.0000 -999.0000 
5018.5000 -999.0000 -999.0000 -999.0000 
5019.0000 -999.0000 -999.0000 -999.0000 
5019.5000 -999.0000 -999.0000 -999.0000 
5020.0000 -999.0000 -999.0000 -999.0000 
5020.5000 -999.0000 -999.0000 -999.0000 
5021.0000 -999.0000 -999.0000 -999.0000 
5021.5000 -999.0000 -999.0000 -999.0000 
5022.0000 -999.0000 -999.0000 -999.0000 
5022.5000 -999.0000 -999.0000 -999.0000 
5023.0000 -999.0000 -999.0000 -999.0000 
5023.5000 -999.0000 -999.0000 -999.0000 
5024.0000 -999.0000 -999.0000 -999.0000 
5024.5000 -999.0000 -999.0000 -999.0000 
5025.0000 -999.0000 -999.0000 -999.0000 
5025.5000 -999.0000 -999.0000 -999.0000 
5026.0000 -999.0000 -999.0000 -999.0000 
5026.5000 -999.0000 -999.0000 -999.0000 
5027.0000 -999.0000 -999.0000 -999.0000 
5027.5000 -999.0000 -999.0000 -999.0000 
5028.0000 -999.0000 -999.0000 -999.0000 
5028.5000 -999.0000 -999.0000 -999.0000 
5029.0000 -999.0000 -999.0000 -999.0000 
5029.5000 -999.0000 -999.0000 -999.0000 
5030.0000 -999.0000 -999.0000 -999.0000 
5030.5000 -999.0000 -999.0000 -999.0000 
5031.0000 -999.0000 -999.0000 -999.0000 
5031.5000 -999.0000 -999.0000 -999.0000 
5032.0000 -999.0000 -999.0000 -999.0000 
5032.5000 -999.0000 -999.0000 -999.0000 
5033.0000 -999.0000 -999.0000 -999.0000 
5033.5000 -999.0000 -999.0000 -999.0000 
