~VERSION INFORMATION
 VERS.                 2.0:   CWLS LOG ASCII STANDARD - VERSION 2.0
 WRAP.                  NO:   SINGLE LINE PER DEPTH STEP
 CREA.                 04/15/2020 08:51:23
#CREATED USING IP VERSION 4.5.2018.127 BY RODRIGC1 ON 04/15/2020 08:51:23
~WELL INFORMATION
#MNEM.UNIT       DATA                          DESCRIPTION MNEMONIC
#---------      ---------------------------   --------------------------
 STRT    .FT        330.0000                  : START DEPTH
 STOP    .FT        5034.0000                 : STOP DEPTH
 STEP    .FT        0.5000                    : STEP VALUE
 NULL    .      -999.0000                     : NULL VALUE
 DATE    .      04/15/2020                    : LAS file Creation Date
 WELL   .      CIRA-3900               : Well Name
 COM1   .      Original database: Rosy : Well Comment
 COMP   .      ECOPETROL S.A.          : Company
 FLD    .      LA CIRA INFANTAS        : Field
 STATE  .      SANTANDER               : State
 COUNT  .      COLOMBIA                : Country
 API    .      3900                    : API Number
 UWI    .      CIRA3900                : Unique Well Identifier (UWI)
 LOC    .      SURFACE COORDENATES     : Location
 TOWN   .      N/A                     : Township
 SCT    .      N/A                     : Section
 RANG   .      N/A                     : Range
 PDAT   .      GL                      : Permanent Datum
 EPDAT  .      307.1000                : Elevation of Permanent Datum
 LGMEA  .      DF                      : Log Measured from
 DRMEA  .      DF                      : Drill Measured From
 APDAT  .      16.0000                 : Elevation Above Permanent Datum
 KB     .      323.1000                : KB Elevation
 DF     .      323.1000                : DF Elevation
 GL     .      307.1000                : GL Elevation
 RWS    .      -999                    : Def_Rw
 WST    .      -999                    : Def_Rwt
 UTMZ   .      31                      : UTM Zone
 CNTY   .      BMEJA                   : County
 PROV   .      BARRANCABERMEJA         : Province
 SRVC   .      SCH                     : Contractor
 GDAT   .      WGS 84                  : Geodatum
 LONG   .      0                       : Longitude
 LATI   .      0                       : Latitude
 COORDIN.                              : Grid System
 XCOORD .                              : X or East-West Coordinate
 YCOORD .                              : Y or North-South Coordinate
~CURVE INFORMATION
#MNEM              UNIT       API CODE   Curve Type Comments
#----------  --------------- ----------  ---------- -----------
 DEPTH      .FT                        : Depth       
 PHIE       .Dec                       : Phi         
 K_3104     .                          :             
 SW         .Dec                       : Sw          
~A  DEPTH    PHIE     K_3104      SW    
 330.0000    0.0001 -999.0000    1.0000 
 330.5000    0.0001 -999.0000    1.0000 
 331.0000    0.0001 -999.0000    1.0000 
 331.5000    0.0001 -999.0000    1.0000 
 332.0000    0.0001 -999.0000    1.0000 
 332.5000    0.0001 -999.0000    1.0000 
 333.0000    0.0012 -999.0000    1.0000 
 333.5000    0.0687 -999.0000    0.4090 
 334.0000    0.2071 -999.0000    0.0733 
 334.5000    0.2122 -999.0000    0.0691 
 335.0000    0.2513 -999.0000    0.0684 
 335.5000    0.2209 -999.0000    0.0872 
 336.0000    0.2438 -999.0000    0.1030 
 336.5000    0.2657 -999.0000    0.1083 
 337.0000    0.2054 -999.0000    0.0940 
 337.5000    0.0736 -999.0000    0.3480 
 338.0000    0.0517 -999.0000    0.7923 
 338.5000    0.0071 -999.0000    1.0000 
 339.0000    0.0043 -999.0000    1.0000 
 339.5000    0.0004 -999.0000    1.0000 
 340.0000    0.0002 -999.0000    1.0000 
 340.5000    0.0002 -999.0000    1.0000 
 341.0000    0.0006 -999.0000    1.0000 
 341.5000    0.0001 -999.0000    1.0000 
 342.0000    0.0001 -999.0000    1.0000 
 342.5000    0.0022 -999.0000    1.0000 
 343.0000    0.0191 -999.0000    1.0000 
 343.5000    0.0034 -999.0000    1.0000 
 344.0000    0.0009 -999.0000    1.0000 
 344.5000    0.0066 -999.0000    1.0000 
 345.0000    0.0001 -999.0000    1.0000 
 345.5000    0.0001 -999.0000    1.0000 
 346.0000    0.0003 -999.0000    1.0000 
 346.5000    0.0149 -999.0000    1.0000 
 347.0000    0.0970 -999.0000    0.4163 
 347.5000    0.0028 -999.0000    1.0000 
 348.0000    0.0001 -999.0000    1.0000 
 348.5000    0.0001 -999.0000    1.0000 
 349.0000    0.0072 -999.0000    1.0000 
 349.5000    0.1858 -999.0000    1.0000 
 350.0000    0.2438 -999.0000    0.9135 
 350.5000    0.2071 -999.0000    0.7252 
 351.0000    0.1673 -999.0000    0.6129 
 351.5000    0.1924 -999.0000    0.2525 
 352.0000    0.2023 -999.0000    0.0920 
 352.5000    0.1835 -999.0000    0.1840 
 353.0000    0.1802 -999.0000    0.2642 
 353.5000    0.1276 -999.0000    0.5023 
 354.0000    0.2978 -999.0000    0.2373 
 354.5000    0.1775 -999.0000    0.4422 
 355.0000    0.0212 -999.0000    1.0000 
 355.5000    0.0180 -999.0000    1.0000 
 356.0000    0.0484 -999.0000    1.0000 
 356.5000    0.0873 -999.0000    1.0000 
 357.0000    0.0702 -999.0000    1.0000 
 357.5000    0.0327 -999.0000    1.0000 
 358.0000    0.0132 -999.0000    1.0000 
 358.5000    0.0088 -999.0000    1.0000 
 359.0000    0.0228 -999.0000    1.0000 
 359.5000    0.0534 -999.0000    1.0000 
 360.0000    0.0773 -999.0000    1.0000 
 360.5000    0.1103 -999.0000    1.0000 
 361.0000    0.0579 -999.0000    1.0000 
 361.5000    0.1146 -999.0000    1.0000 
 362.0000    0.0534 -999.0000    1.0000 
 362.5000    0.0141 -999.0000    1.0000 
 363.0000    0.0274 -999.0000    1.0000 
 363.5000    0.1117 -999.0000    1.0000 
 364.0000    0.1716 -999.0000    0.8419 
 364.5000    0.1250 -999.0000    1.0000 
 365.0000    0.0152 -999.0000    1.0000 
 365.5000    0.0044 -999.0000    1.0000 
 366.0000    0.0006 -999.0000    1.0000 
 366.5000    0.0012 -999.0000    1.0000 
 367.0000    0.0654 -999.0000    1.0000 
 367.5000    0.0085 -999.0000    1.0000 
 368.0000    0.0137 -999.0000    1.0000 
 368.5000    0.0018 -999.0000    1.0000 
 369.0000    0.0142 -999.0000    1.0000 
 369.5000    0.0401 -999.0000    1.0000 
 370.0000    0.0899 -999.0000    1.0000 
 370.5000    0.1047 -999.0000    1.0000 
 371.0000    0.0959 -999.0000    1.0000 
 371.5000    0.0665 -999.0000    1.0000 
 372.0000    0.0361 -999.0000    1.0000 
 372.5000    0.0134 -999.0000    1.0000 
 373.0000    0.0026 -999.0000    1.0000 
 373.5000    0.0080 -999.0000    1.0000 
 374.0000    0.0075 -999.0000    1.0000 
 374.5000    0.0001 -999.0000    1.0000 
 375.0000    0.0084 -999.0000    1.0000 
 375.5000    0.0040 -999.0000    1.0000 
 376.0000    0.0171 -999.0000    1.0000 
 376.5000    0.0129 -999.0000    1.0000 
 377.0000    0.0102 -999.0000    1.0000 
 377.5000    0.0023 -999.0000    1.0000 
 378.0000    0.0448 -999.0000    1.0000 
 378.5000    0.0195 -999.0000    1.0000 
 379.0000    0.0276 -999.0000    1.0000 
 379.5000    0.0133 -999.0000    1.0000 
 380.0000    0.0647 -999.0000    1.0000 
 380.5000    0.0340 -999.0000    1.0000 
 381.0000    0.0714 -999.0000    1.0000 
 381.5000    0.0748 -999.0000    1.0000 
 382.0000    0.1847 -999.0000    0.7181 
 382.5000    0.1749 -999.0000    0.7532 
 383.0000    0.0351 -999.0000    1.0000 
 383.5000    0.0081 -999.0000    1.0000 
 384.0000    0.0124 -999.0000    1.0000 
 384.5000    0.1099 -999.0000    1.0000 
 385.0000    0.0820 -999.0000    1.0000 
 385.5000    0.0501 -999.0000    1.0000 
 386.0000    0.1371 -999.0000    1.0000 
 386.5000    0.1798 -999.0000    0.7152 
 387.0000    0.1835 -999.0000    0.6952 
 387.5000    0.1814 -999.0000    0.7181 
 388.0000    0.1234 -999.0000    1.0000 
 388.5000    0.0152 -999.0000    1.0000 
 389.0000    0.0117 -999.0000    1.0000 
 389.5000    0.0045 -999.0000    1.0000 
 390.0000    0.0115 -999.0000    1.0000 
 390.5000    0.0142 -999.0000    1.0000 
 391.0000    0.0040 -999.0000    1.0000 
 391.5000    0.0006 -999.0000    1.0000 
 392.0000    0.0463 -999.0000    1.0000 
 392.5000    0.1059 -999.0000    1.0000 
 393.0000    0.1303 -999.0000    1.0000 
 393.5000    0.0684 -999.0000    1.0000 
 394.0000    0.0096 -999.0000    1.0000 
 394.5000    0.0004 -999.0000    1.0000 
 395.0000    0.0051 -999.0000    1.0000 
 395.5000    0.0065 -999.0000    1.0000 
 396.0000    0.0012 -999.0000    1.0000 
 396.5000    0.0062 -999.0000    1.0000 
 397.0000    0.0021 -999.0000    1.0000 
 397.5000    0.0520 -999.0000    1.0000 
 398.0000    0.1439 -999.0000    1.0000 
 398.5000    0.1554 -999.0000    0.9908 
 399.0000    0.1690 -999.0000    0.8490 
 399.5000    0.0653 -999.0000    1.0000 
 400.0000    0.0337 -999.0000    1.0000 
 400.5000    0.0183 -999.0000    1.0000 
 401.0000    0.0564 -999.0000    1.0000 
 401.5000    0.0302 -999.0000    1.0000 
 402.0000    0.0210 -999.0000    1.0000 
 402.5000    0.0789 -999.0000    1.0000 
 403.0000    0.0656 -999.0000    1.0000 
 403.5000    0.1711 -999.0000    0.8480 
 404.0000    0.0229 -999.0000    1.0000 
 404.5000    0.0177 -999.0000    1.0000 
 405.0000    0.0176 -999.0000    1.0000 
 405.5000    0.0065 -999.0000    1.0000 
 406.0000    0.0045 -999.0000    1.0000 
 406.5000    0.0006 -999.0000    1.0000 
 407.0000    0.0827 -999.0000    1.0000 
 407.5000    0.0366 -999.0000    1.0000 
 408.0000    0.0038 -999.0000    1.0000 
 408.5000    0.0087 -999.0000    1.0000 
 409.0000    0.0005 -999.0000    1.0000 
 409.5000    0.0018 -999.0000    1.0000 
 410.0000    0.0170 -999.0000    1.0000 
 410.5000    0.0345 -999.0000    1.0000 
 411.0000    0.0274 -999.0000    1.0000 
 411.5000    0.0123 -999.0000    1.0000 
 412.0000    0.0836 -999.0000    1.0000 
 412.5000    0.0420 -999.0000    1.0000 
 413.0000    0.1595 -999.0000    0.8505 
 413.5000    0.1801 -999.0000    0.6484 
 414.0000    0.2021 -999.0000    0.5506 
 414.5000    0.1899 -999.0000    0.5792 
 415.0000    0.2023 -999.0000    0.6022 
 415.5000    0.1788 -999.0000    0.7577 
 416.0000    0.1217 -999.0000    1.0000 
 416.5000    0.0200 -999.0000    1.0000 
 417.0000    0.0040 -999.0000    1.0000 
 417.5000    0.0011 -999.0000    1.0000 
 418.0000    0.0004 -999.0000    1.0000 
 418.5000    0.0102 -999.0000    1.0000 
 419.0000    0.0897 -999.0000    1.0000 
 419.5000    0.0471 -999.0000    1.0000 
 420.0000    0.1754 -999.0000    0.7802 
 420.5000    0.1813 -999.0000    0.7108 
 421.0000    0.1712 -999.0000    0.7591 
 421.5000    0.1825 -999.0000    0.6882 
 422.0000    0.1848 -999.0000    0.6868 
 422.5000    0.1744 -999.0000    0.7458 
 423.0000    0.1454 -999.0000    0.9728 
 423.5000    0.1861 -999.0000    0.6508 
 424.0000    0.2632 -999.0000    0.4431 
 424.5000    0.3174 -999.0000    0.3501 
 425.0000    0.3455 -999.0000    0.3166 
 425.5000    0.3226 -999.0000    0.3339 
 426.0000    0.3028 -999.0000    0.3542 
 426.5000    0.2869 -999.0000    0.3667 
 427.0000    0.2809 -999.0000    0.3607 
 427.5000    0.2720 -999.0000    0.3523 
