~VERSION INFORMATION
 VERS.                 2.0:   CWLS LOG ASCII STANDARD - VERSION 2.0
 WRAP.                  NO:   SINGLE LINE PER DEPTH STEP
 CREA.                 04/15/2020 08:51:23
#CREATED USING IP VERSION 4.5.2018.127 BY RODRIGC1 ON 04/15/2020 08:51:23
~WELL INFORMATION
#MNEM.UNIT       DATA                          DESCRIPTION MNEMONIC
#---------      ---------------------------   --------------------------
 STRT    .FT        330.0000                  : START DEPTH
 STOP    .FT        5034.0000                 : STOP DEPTH
 STEP    .FT        0.5000                    : STEP VALUE
 NULL    .      -999.0000                     : NULL VALUE
 DATE    .      04/15/2020                    : LAS file Creation Date
 WELL   .      CIRA-3900               : Well Name
 COM1   .      Original database: Rosy : Well Comment
 COMP   .      ECOPETROL S.A.          : Company
 FLD    .      LA CIRA INFANTAS        : Field
 STATE  .      SANTANDER               : State
 COUNT  .      COLOMBIA                : Country
 API    .      3900                    : API Number
 UWI    .      CIRA3900                : Unique Well Identifier (UWI)
 LOC    .      SURFACE COORDENATES     : Location
 TOWN   .      N/A                     : Township
 SCT    .      N/A                     : Section
 RANG   .      N/A                     : Range
 PDAT   .      GL                      : Permanent Datum
 EPDAT  .      307.1000                : Elevation of Permanent Datum
 LGMEA  .      DF                      : Log Measured from
 DRMEA  .      DF                      : Drill Measured From
 APDAT  .      16.0000                 : Elevation Above Permanent Datum
 KB     .      323.1000                : KB Elevation
 DF     .      323.1000                : DF Elevation
 GL     .      307.1000                : GL Elevation
 RWS    .      -999                    : Def_Rw
 WST    .      -999                    : Def_Rwt
 UTMZ   .      31                      : UTM Zone
 CNTY   .      BMEJA                   : County
 PROV   .      BARRANCABERMEJA         : Province
 SRVC   .      SCH                     : Contractor
 GDAT   .      WGS 84                  : Geodatum
 LONG   .      0                       : Longitude
 LATI   .      0                       : Latitude
 COORDIN.                              : Grid System
 XCOORD .                              : X or East-West Coordinate
 YCOORD .                              : Y or North-South Coordinate
~CURVE INFORMATION
#MNEM              UNIT       API CODE   Curve Type Comments
#----------  --------------- ----------  ---------- -----------
 DEPTH      .FT                        : Depth       
 PHIE       .Dec                       : Phi         
 K_3104     .                          :             
 SW         .Dec                       : Sw          
~A  DEPTH    PHIE     K_3104      SW    
# ...
2192.0000    0.1371 -999.0000    0.9597 
2192.5000    0.1350 -999.0000    0.9543 
2193.0000    0.1218 -999.0000    1.0000 
2193.5000    0.1172 -999.0000    1.0000 
2194.0000    0.1260 -999.0000    1.0000 
2194.5000    0.1391 -999.0000    0.9938 
2195.0000    0.1390 -999.0000    0.9768 
2195.5000    0.1388 -999.0000    0.9094 
2196.0000    0.1622 -999.0000    0.8377 
2196.5000    0.1814 -999.0000    0.8093 
2197.0000    0.1947 -999.0000    0.8048 
2197.5000    0.1898 -999.0000    0.8224 
2198.0000    0.1931 -999.0000    0.8283 
2198.5000    0.1965 -999.0000    0.8003 
2199.0000    0.2009 -999.0000    0.8047 
2199.5000    0.1988 -999.0000    0.8120 
2200.0000    0.1994 -999.0000    0.8144 
2200.5000    0.1918 -999.0000    0.8374 
2201.0000    0.1745 -999.0000    0.8736 
2201.5000    0.1537 -999.0000    0.9438 
2202.0000    0.1251 -999.0000    1.0000 
2202.5000    0.1178 -999.0000    1.0000 
2203.0000    0.1216 -999.0000    1.0000 
2203.5000    0.1251 -999.0000    1.0000 
2204.0000    0.1397 -999.0000    0.9602 
2204.5000    0.1412 -999.0000    0.9247 
2205.0000    0.1337 -999.0000    0.9320 
2205.5000    0.1205 -999.0000    0.9715 
2206.0000    0.1130 -999.0000    0.9898 
2206.5000    0.1170 -999.0000    0.9304 
2207.0000    0.1647 -999.0000    0.6866 
2207.5000    0.2724 -999.0000    0.5468 
2208.0000    0.3722 -999.0000    0.4647 
2208.5000    0.2248 -999.0000    0.4233 
2209.0000    0.2311 -999.0000    0.3936 
2209.5000    0.2370 -999.0000    0.3808 
2210.0000    0.3270 -999.0000    0.3965 
2210.5000    0.1946 -999.0000    0.4359 
2211.0000    0.1371 -999.0000    0.5442 
2211.5000    0.0998 -999.0000    0.6979 
2212.0000    0.1276 -999.0000    0.5799 
2212.5000    0.2219 -999.0000    0.4022 
2213.0000    0.2606 -999.0000    0.3996 
2213.5000    0.2038 -999.0000    0.5556 
2214.0000    0.1623 -999.0000    0.8288 
2214.5000    0.1376 -999.0000    0.9941 
2215.0000    0.1499 -999.0000    0.9376 
2215.5000    0.2009 -999.0000    0.7822 
2216.0000    0.2121 -999.0000    0.7338 
2216.5000    0.2020 -999.0000    0.6922 
2217.0000    0.2688 -999.0000    0.5836 
2217.5000    0.3245 -999.0000    0.5225 
2218.0000    0.2639 -999.0000    0.5600 
2218.5000    0.1676 -999.0000    0.6425 
2219.0000    0.1229 -999.0000    0.7668 
2219.5000    0.0957 -999.0000    0.9406 
2220.0000    0.1119 -999.0000    0.9164 
2220.5000    0.1377 -999.0000    0.8776 
2221.0000    0.1567 -999.0000    0.8563 
2221.5000    0.1842 -999.0000    0.8380 
2222.0000    0.1923 -999.0000    0.8414 
2222.5000    0.1835 -999.0000    0.8921 
2223.0000    0.1629 -999.0000    0.9845 
2223.5000    0.1510 -999.0000    1.0000 
2224.0000    0.1671 -999.0000    0.9610 
2224.5000    0.2011 -999.0000    0.8572 
2225.0000    0.2229 -999.0000    0.7973 
2225.5000    0.1932 -999.0000    0.8458 
2226.0000    0.1497 -999.0000    0.9602 
2226.5000    0.1302 -999.0000    0.9862 
2227.0000    0.1209 -999.0000    1.0000 
2227.5000    0.1016 -999.0000    1.0000 
2228.0000    0.1113 -999.0000    1.0000 
2228.5000    0.1316 -999.0000    1.0000 
2229.0000    0.1745 -999.0000    0.9293 
2229.5000    0.2118 -999.0000    0.8380 
2230.0000    0.2170 -999.0000    0.8496 
2230.5000    0.1963 -999.0000    0.8871 
2231.0000    0.1961 -999.0000    0.8954 
2231.5000    0.1941 -999.0000    0.9051 
2232.0000    0.1906 -999.0000    0.9213 
2232.5000    0.1873 -999.0000    0.9357 
2233.0000    0.1769 -999.0000    0.9749 
2233.5000    0.1652 -999.0000    1.0000 
2234.0000    0.1681 -999.0000    1.0000 
2234.5000    0.1846 -999.0000    0.9827 
2235.0000    0.1989 -999.0000    0.9278 
2235.5000    0.2042 -999.0000    0.8952 
2236.0000    0.2121 -999.0000    0.8810 
2236.5000    0.1919 -999.0000    0.8861 
2237.0000    0.1713 -999.0000    0.9008 
2237.5000    0.1650 -999.0000    0.8566 
2238.0000    0.1751 -999.0000    0.7646 
2238.5000    0.1895 -999.0000    0.7360 
2239.0000    0.1741 -999.0000    0.6706 
2239.5000    0.1770 -999.0000    0.6227 
2240.0000    0.2432 -999.0000    0.5702 
2240.5000    0.2901 -999.0000    0.5395 
2241.0000    0.2172 -999.0000    0.6210 
2241.5000    0.1127 -999.0000    0.9406 
2242.0000    0.0749 -999.0000    1.0000 
2242.5000    0.1109 -999.0000    1.0000 
2243.0000    0.1487 -999.0000    0.8557 
2243.5000    0.1567 -999.0000    0.8642 
2244.0000    0.1510 -999.0000    0.9004 
2244.5000    0.1514 -999.0000    0.9310 
2245.0000    0.1526 -999.0000    0.9426 
2245.5000    0.1535 -999.0000    0.9703 
2246.0000    0.1400 -999.0000    1.0000 
2246.5000    0.1469 -999.0000    1.0000 
2247.0000    0.1771 -999.0000    0.9415 
2247.5000    0.2017 -999.0000    0.8844 
2248.0000    0.2055 -999.0000    0.8613 
2248.5000    0.2173 -999.0000    0.8421 
2249.0000    0.2237 -999.0000    0.8264 
2249.5000    0.2219 -999.0000    0.8029 
2250.0000    0.2281 -999.0000    0.7966 
2250.5000    0.2106 -999.0000    0.8135 
2251.0000    0.2014 -999.0000    0.8340 
2251.5000    0.1962 -999.0000    0.8311 
2252.0000    0.1942 -999.0000    0.8202 
2252.5000    0.1896 -999.0000    0.8129 
2253.0000    0.1600 -999.0000    0.8431 
2253.5000    0.1388 -999.0000    0.8593 
2254.0000    0.2192 -999.0000    0.6329 
2254.5000    0.2930 -999.0000    0.3966 
2255.0000    0.2893 -999.0000    0.3833 
2255.5000    0.2865 -999.0000    0.3652 
2256.0000    0.2568 -999.0000    0.3996 
2256.5000    0.2624 -999.0000    0.4624 
2257.0000    0.2674 -999.0000    0.5463 
2257.5000    0.2212 -999.0000    0.7578 
2258.0000    0.2015 -999.0000    0.8479 
2258.5000    0.2152 -999.0000    0.8550 
2259.0000    0.2249 -999.0000    0.8555 
2259.5000    0.2459 -999.0000    0.8274 
2260.0000    0.2487 -999.0000    0.8416 
2260.5000    0.2158 -999.0000    0.9263 
2261.0000    0.1856 -999.0000    1.0000 
2261.5000    0.1873 -999.0000    1.0000 
2262.0000    0.1823 -999.0000    0.9931 
2262.5000    0.1767 -999.0000    1.0000 
2263.0000    0.1865 -999.0000    0.9888 
2263.5000    0.1941 -999.0000    0.9735 
2264.0000    0.1878 -999.0000    1.0000 
2264.5000    0.1793 -999.0000    1.0000 
2265.0000    0.1834 -999.0000    0.9414 
2265.5000    0.1854 -999.0000    0.9165 
2266.0000    0.1657 -999.0000    0.9612 
2266.5000    0.1241 -999.0000    1.0000 
2267.0000    0.0913 -999.0000    1.0000 
2267.5000    0.1098 -999.0000    1.0000 
2268.0000    0.1640 -999.0000    1.0000 
2268.5000    0.2068 -999.0000    0.8676 
2269.0000    0.2143 -999.0000    0.8226 
2269.5000    0.2046 -999.0000    0.8343 
2270.0000    0.1633 -999.0000    0.8714 
2270.5000    0.1300 -999.0000    0.8908 
2271.0000    0.1583 -999.0000    0.6611 
2271.5000    0.3004 -999.0000    0.4724 
2272.0000    0.2803 -999.0000    0.3722 
2272.5000    0.2893 -999.0000    0.3771 
2273.0000    0.2985 -999.0000    0.3608 
2273.5000    0.2583 -999.0000    0.5024 
2274.0000    0.0945 -999.0000    0.8373 
2274.5000    0.0400 -999.0000    1.0000 
2275.0000    0.0354 -999.0000    1.0000 
2275.5000    0.0529 -999.0000    1.0000 
2276.0000    0.0885 -999.0000    0.9991 
2276.5000    0.1159 -999.0000    0.8775 
2277.0000    0.1248 -999.0000    0.8699 
2277.5000    0.1239 -999.0000    0.9339 
2278.0000    0.1142 -999.0000    0.9666 
2278.5000    0.1153 -999.0000    0.9462 
2279.0000    0.1164 -999.0000    0.9560 
2279.5000    0.1266 -999.0000    0.9371 
2280.0000    0.1145 -999.0000    0.9444 
2280.5000    0.0714 -999.0000    1.0000 
2281.0000    0.0282 -999.0000    1.0000 
2281.5000    0.0122 -999.0000    1.0000 
2282.0000    0.0217 -999.0000    1.0000 
2282.5000    0.0216 -999.0000    1.0000 
2283.0000    0.0306 -999.0000    1.0000 
2283.5000    0.0358 -999.0000    1.0000 
2284.0000    0.0401 -999.0000    1.0000 
2284.5000    0.0470 -999.0000    1.0000 
2285.0000    0.0921 -999.0000    1.0000 
2285.5000    0.1411 -999.0000    0.9263 
2286.0000    0.1450 -999.0000    0.9148 
2286.5000    0.1244 -999.0000    1.0000 
2287.0000    0.1209 -999.0000    1.0000 
2287.5000    0.1313 -999.0000    1.0000 
2288.0000    0.1522 -999.0000    0.9511 
2288.5000    0.1668 -999.0000    0.9344 
2289.0000    0.1740 -999.0000    0.9207 
2289.5000    0.1818 -999.0000    0.8769 
