~VERSION INFORMATION
 VERS.                 2.0:   CWLS LOG ASCII STANDARD - VERSION 2.0
 WRAP.                  NO:   SINGLE LINE PER DEPTH STEP
 CREA.                 04/15/2020 08:51:23
#CREATED USING IP VERSION 4.5.2018.127 BY RODRIGC1 ON 04/15/2020 08:51:23
~WELL INFORMATION
#MNEM.UNIT       DATA                          DESCRIPTION MNEMONIC
#---------      ---------------------------   --------------------------
 STRT    .FT        330.0000                  : START DEPTH
 STOP    .FT        5034.0000                 : STOP DEPTH
 STEP    .FT        0.5000                    : STEP VALUE
 NULL    .      -999.0000                     : NULL VALUE
 DATE    .      04/15/2020                    : LAS file Creation Date
 WELL   .      CIRA-3900               : Well Name
 COM1   .      Original database: Rosy : Well Comment
 COMP   .      ECOPETROL S.A.          : Company
 FLD    .      LA CIRA INFANTAS        : Field
 STATE  .      SANTANDER               : State
 COUNT  .      COLOMBIA                : Country
 API    .      3900                    : API Number
 UWI    .      CIRA3900                : Unique Well Identifier (UWI)
 LOC    .      SURFACE COORDENATES     : Location
 TOWN   .      N/A                     : Township
 SCT    .      N/A                     : Section
 RANG   .      N/A                     : Range
 PDAT   .      GL                      : Permanent Datum
 EPDAT  .      307.1000                : Elevation of Permanent Datum
 LGMEA  .      DF                      : Log Measured from
 DRMEA  .      DF                      : Drill Measured From
 APDAT  .      16.0000                 : Elevation Above Permanent Datum
 KB     .      323.1000                : KB Elevation
 DF     .      323.1000                : DF Elevation
 GL     .      307.1000                : GL Elevation
 RWS    .      -999                    : Def_Rw
 WST    .      -999                    : Def_Rwt
 UTMZ   .      31                      : UTM Zone
 CNTY   .      BMEJA                   : County
 PROV   .      BARRANCABERMEJA         : Province
 SRVC   .      SCH                     : Contractor
 GDAT   .      WGS 84                  : Geodatum
 LONG   .      0                       : Longitude
 LATI   .      0                       : Latitude
 COORDIN.                              : Grid System
 XCOORD .                              : X or East-West Coordinate
 YCOORD .                              : Y or North-South Coordinate
~CURVE INFORMATION
#MNEM              UNIT       API CODE   Curve Type Comments
#----------  --------------- ----------  ---------- -----------
 DEPTH      .FT                        : Depth       
 PHIE       .Dec                       : Phi         
 K_3104     .                          :             
 SW         .Dec                       : Sw          
~A  DEPTH    PHIE     K_3104      SW    
# ...
 624.0000    0.2194 -999.0000    0.2831 
 624.5000    0.2253 -999.0000    0.2839 
 625.0000    0.2387 -999.0000    0.3050 
 625.5000    0.2403 -999.0000    0.3161 
 626.0000    0.2309 -999.0000    0.3025 
 626.5000    0.2231 -999.0000    0.3033 
 627.0000    0.2125 -999.0000    0.3264 
 627.5000    0.1972 -999.0000    0.3346 
 628.0000    0.1889 -999.0000    0.3296 
 628.5000    0.1929 -999.0000    0.3419 
 629.0000    0.1826 -999.0000    0.3440 
 629.5000    0.1628 -999.0000    0.4229 
 630.0000    0.1531 -999.0000    0.4968 
 630.5000    0.1759 -999.0000    0.4325 
 631.0000    0.2112 -999.0000    0.4015 
 631.5000    0.1779 -999.0000    0.3999 
 632.0000    0.1123 -999.0000    0.5836 
 632.5000    0.0786 -999.0000    1.0000 
 633.0000    0.1067 -999.0000    0.6382 
 633.5000    0.1555 -999.0000    0.3980 
 634.0000    0.2248 -999.0000    0.3399 
 634.5000    0.2864 -999.0000    0.3297 
 635.0000    0.3101 -999.0000    0.3390 
 635.5000    0.2923 -999.0000    0.3291 
 636.0000    0.2607 -999.0000    0.3008 
 636.5000    0.2490 -999.0000    0.2834 
 637.0000    0.2526 -999.0000    0.2766 
 637.5000    0.2586 -999.0000    0.2883 
 638.0000    0.2493 -999.0000    0.2822 
 638.5000    0.2494 -999.0000    0.2866 
 639.0000    0.2559 -999.0000    0.2841 
 639.5000    0.2571 -999.0000    0.2825 
 640.0000    0.2456 -999.0000    0.2701 
 640.5000    0.2404 -999.0000    0.2671 
 641.0000    0.2441 -999.0000    0.2811 
 641.5000    0.2362 -999.0000    0.2825 
 642.0000    0.2350 -999.0000    0.2903 
 642.5000    0.2477 -999.0000    0.2896 
 643.0000    0.2604 -999.0000    0.2830 
 643.5000    0.2601 -999.0000    0.2819 
 644.0000    0.2545 -999.0000    0.2910 
 644.5000    0.2462 -999.0000    0.2977 
 645.0000    0.2282 -999.0000    0.3006 
 645.5000    0.2175 -999.0000    0.3281 
 646.0000    0.2063 -999.0000    0.3250 
 646.5000    0.1954 -999.0000    0.3113 
 647.0000    0.1805 -999.0000    0.3535 
 647.5000    0.1661 -999.0000    0.4650 
 648.0000    0.1504 -999.0000    0.5341 
 648.5000    0.1291 -999.0000    0.5754 
 649.0000    0.1042 -999.0000    0.7558 
 649.5000    0.0687 -999.0000    1.0000 
 650.0000    0.0366 -999.0000    1.0000 
 650.5000    0.0402 -999.0000    1.0000 
 651.0000    0.0504 -999.0000    1.0000 
 651.5000    0.0743 -999.0000    0.6569 
 652.0000    0.0964 -999.0000    0.5323 
 652.5000    0.1093 -999.0000    0.4636 
 653.0000    0.1210 -999.0000    0.4379 
 653.5000    0.1357 -999.0000    0.4181 
 654.0000    0.1411 -999.0000    0.4066 
 654.5000    0.1234 -999.0000    0.4077 
 655.0000    0.1061 -999.0000    0.4633 
 655.5000    0.0932 -999.0000    0.4980 
 656.0000    0.0972 -999.0000    0.4946 
 656.5000    0.1072 -999.0000    0.4741 
 657.0000    0.1142 -999.0000    0.4678 
 657.5000    0.1234 -999.0000    0.4456 
 658.0000    0.1265 -999.0000    0.4131 
 658.5000    0.1305 -999.0000    0.4290 
 659.0000    0.1449 -999.0000    0.4603 
 659.5000    0.1495 -999.0000    0.4374 
 660.0000    0.1346 -999.0000    0.3674 
 660.5000    0.1298 -999.0000    0.3905 
 661.0000    0.1233 -999.0000    0.3716 
 661.5000    0.1397 -999.0000    0.2948 
 662.0000    0.2013 -999.0000    0.2362 
 662.5000    0.2595 -999.0000    0.2364 
 663.0000    0.2662 -999.0000    0.2428 
 663.5000    0.2672 -999.0000    0.2429 
 664.0000    0.2696 -999.0000    0.2309 
 664.5000    0.2707 -999.0000    0.2271 
 665.0000    0.2744 -999.0000    0.2323 
 665.5000    0.2675 -999.0000    0.2161 
 666.0000    0.2637 -999.0000    0.2071 
 666.5000    0.2560 -999.0000    0.2039 
 667.0000    0.2553 -999.0000    0.2365 
 667.5000    0.2565 -999.0000    0.2402 
 668.0000    0.2614 -999.0000    0.2405 
 668.5000    0.2637 -999.0000    0.2626 
 669.0000    0.2634 -999.0000    0.2601 
 669.5000    0.2703 -999.0000    0.2547 
 670.0000    0.2709 -999.0000    0.2660 
 670.5000    0.2588 -999.0000    0.2742 
 671.0000    0.2482 -999.0000    0.2717 
 671.5000    0.2447 -999.0000    0.2727 
 672.0000    0.2403 -999.0000    0.2640 
 672.5000    0.2484 -999.0000    0.2701 
 673.0000    0.2569 -999.0000    0.2797 
 673.5000    0.2541 -999.0000    0.2948 
 674.0000    0.2471 -999.0000    0.2976 
 674.5000    0.2413 -999.0000    0.2982 
 675.0000    0.2301 -999.0000    0.3021 
 675.5000    0.2137 -999.0000    0.3024 
 676.0000    0.1937 -999.0000    0.3353 
 676.5000    0.1663 -999.0000    0.3274 
 677.0000    0.1736 -999.0000    0.3007 
 677.5000    0.2119 -999.0000    0.3178 
 678.0000    0.2332 -999.0000    0.3267 
 678.5000    0.2370 -999.0000    0.3363 
 679.0000    0.2320 -999.0000    0.3430 
 679.5000    0.2254 -999.0000    0.3446 
 680.0000    0.2154 -999.0000    0.3607 
 680.5000    0.1858 -999.0000    0.3825 
 681.0000    0.1492 -999.0000    0.4549 
 681.5000    0.0457 -999.0000    1.0000 
 682.0000    0.0018 -999.0000    1.0000 
 682.5000    0.0043 -999.0000    1.0000 
 683.0000    0.0376 -999.0000    1.0000 
 683.5000    0.0069 -999.0000    1.0000 
 684.0000    0.0034 -999.0000    1.0000 
 684.5000    0.0152 -999.0000    1.0000 
 685.0000    0.0464 -999.0000    1.0000 
 685.5000    0.0761 -999.0000    1.0000 
 686.0000    0.1482 -999.0000    0.4402 
 686.5000    0.1985 -999.0000    0.3920 
 687.0000    0.2034 -999.0000    0.3678 
 687.5000    0.1834 -999.0000    0.3315 
 688.0000    0.1978 -999.0000    0.2924 
 688.5000    0.2411 -999.0000    0.2868 
 689.0000    0.2630 -999.0000    0.2872 
 689.5000    0.2543 -999.0000    0.2806 
 690.0000    0.2420 -999.0000    0.2521 
 690.5000    0.2515 -999.0000    0.2661 
 691.0000    0.2577 -999.0000    0.2801 
 691.5000    0.2472 -999.0000    0.2726 
 692.0000    0.2244 -999.0000    0.2722 
 692.5000    0.2058 -999.0000    0.3108 
 693.0000    0.1961 -999.0000    0.3247 
 693.5000    0.2023 -999.0000    0.3266 
 694.0000    0.2090 -999.0000    0.3281 
 694.5000    0.2010 -999.0000    0.3293 
 695.0000    0.1883 -999.0000    0.3350 
 695.5000    0.1731 -999.0000    0.3306 
 696.0000    0.1502 -999.0000    0.3477 
 696.5000    0.1329 -999.0000    0.3650 
 697.0000    0.1478 -999.0000    0.3914 
 697.5000    0.1591 -999.0000    0.4100 
 698.0000    0.1460 -999.0000    0.4745 
 698.5000    0.1271 -999.0000    0.5180 
 699.0000    0.1245 -999.0000    0.4628 
 699.5000    0.1250 -999.0000    0.3971 
 700.0000    0.1304 -999.0000    0.3422 
 700.5000    0.1645 -999.0000    0.3164 
 701.0000    0.2039 -999.0000    0.3139 
 701.5000    0.2025 -999.0000    0.2909 
 702.0000    0.2050 -999.0000    0.3178 
 702.5000    0.2170 -999.0000    0.3129 
 703.0000    0.2232 -999.0000    0.2892 
 703.5000    0.2201 -999.0000    0.2972 
 704.0000    0.2099 -999.0000    0.3077 
 704.5000    0.2034 -999.0000    0.2905 
 705.0000    0.2085 -999.0000    0.2903 
 705.5000    0.2134 -999.0000    0.3064 
 706.0000    0.2124 -999.0000    0.3048 
 706.5000    0.2086 -999.0000    0.2975 
 707.0000    0.2124 -999.0000    0.3129 
 707.5000    0.2087 -999.0000    0.2964 
 708.0000    0.1948 -999.0000    0.2902 
 708.5000    0.1824 -999.0000    0.2855 
 709.0000    0.1871 -999.0000    0.2758 
 709.5000    0.2044 -999.0000    0.2886 
 710.0000    0.2303 -999.0000    0.3022 
 710.5000    0.2487 -999.0000    0.2885 
 711.0000    0.2504 -999.0000    0.2818 
 711.5000    0.2472 -999.0000    0.2994 
 712.0000    0.2432 -999.0000    0.3066 
 712.5000    0.2371 -999.0000    0.3164 
 713.0000    0.2132 -999.0000    0.3313 
 713.5000    0.1807 -999.0000    0.3333 
 714.0000    0.1778 -999.0000    0.3191 
 714.5000    0.1978 -999.0000    0.3165 
 715.0000    0.2060 -999.0000    0.3195 
 715.5000    0.1990 -999.0000    0.3248 
 716.0000    0.1904 -999.0000    0.3209 
 716.5000    0.1898 -999.0000    0.3169 
 717.0000    0.1872 -999.0000    0.3231 
 717.5000    0.1771 -999.0000    0.3207 
 718.0000    0.1737 -999.0000    0.3305 
 718.5000    0.1655 -999.0000    0.3102 
 719.0000    0.1647 -999.0000    0.3326 
 719.5000    0.1677 -999.0000    0.3453 
 720.0000    0.1688 -999.0000    0.3245 
 720.5000    0.1772 -999.0000    0.3468 
 721.0000    0.1908 -999.0000    0.3501 
 721.5000    0.2064 -999.0000    0.3353 
