~VERSION INFORMATION
 VERS.                 2.0:   CWLS LOG ASCII STANDARD - VERSION 2.0
 WRAP.                  NO:   SINGLE LINE PER DEPTH STEP
 CREA.                 04/15/2020 08:51:23
#CREATED USING IP VERSION 4.5.2018.127 BY RODRIGC1 ON 04/15/2020 08:51:23
~WELL INFORMATION
#MNEM.UNIT       DATA                          DESCRIPTION MNEMONIC
#---------      ---------------------------   --------------------------
 STRT    .FT        330.0000                  : START DEPTH
 STOP    .FT        5034.0000                 : STOP DEPTH
 STEP    .FT        0.5000                    : STEP VALUE
 NULL    .      -999.0000                     : NULL VALUE
 DATE    .      04/15/2020                    : LAS file Creation Date
 WELL   .      CIRA-3900               : Well Name
 COM1   .      Original database: Rosy : Well Comment
 COMP   .      ECOPETROL S.A.          : Company
 FLD    .      LA CIRA INFANTAS        : Field
 STATE  .      SANTANDER               : State
 COUNT  .      COLOMBIA                : Country
 API    .      3900                    : API Number
 UWI    .      CIRA3900                : Unique Well Identifier (UWI)
 LOC    .      SURFACE COORDENATES     : Location
 TOWN   .      N/A                     : Township
 SCT    .      N/A                     : Section
 RANG   .      N/A                     : Range
 PDAT   .      GL                      : Permanent Datum
 EPDAT  .      307.1000                : Elevation of Permanent Datum
 LGMEA  .      DF                      : Log Measured from
 DRMEA  .      DF                      : Drill Measured From
 APDAT  .      16.0000                 : Elevation Above Permanent Datum
 KB     .      323.1000                : KB Elevation
 DF     .      323.1000                : DF Elevation
 GL     .      307.1000                : GL Elevation
 RWS    .      -999                    : Def_Rw
 WST    .      -999                    : Def_Rwt
 UTMZ   .      31                      : UTM Zone
 CNTY   .      BMEJA                   : County
 PROV   .      BARRANCABERMEJA         : Province
 SRVC   .      SCH                     : Contractor
 GDAT   .      WGS 84                  : Geodatum
 LONG   .      0                       : Longitude
 LATI   .      0                       : Latitude
 COORDIN.                              : Grid System
 XCOORD .                              : X or East-West Coordinate
 YCOORD .                              : Y or North-South Coordinate
~CURVE INFORMATION
#MNEM              UNIT       API CODE   Curve Type Comments
#----------  --------------- ----------  ---------- -----------
 DEPTH      .FT                        : Depth       
 PHIE       .Dec                       : Phi         
 K_3104     .                          :             
 SW         .Dec                       : Sw          
~A  DEPTH    PHIE     K_3104      SW    
# ...
3074.0000    0.1102 -999.0000    0.5665 
3074.5000    0.1734 -999.0000    0.5324 
3075.0000    0.2745 -999.0000    0.4892 
3075.5000    0.2304 -999.0000    0.5326 
3076.0000    0.1323 -999.0000    0.6599 
3076.5000    0.1264 -999.0000    0.6992 
3077.0000    0.1280 -999.0000    0.6476 
3077.5000    0.1301 -999.0000    0.5755 
3078.0000    0.1693 -999.0000    0.4894 
3078.5000    0.2186 -999.0000    0.4976 
3079.0000    0.2027 -999.0000    0.5521 
3079.5000    0.1386 -999.0000    0.6604 
3080.0000    0.1073 -999.0000    0.6906 
3080.5000    0.1223 -999.0000    0.5963 
3081.0000    0.1225 -999.0000    0.4917 
3081.5000    0.1424 -999.0000    0.4571 
3082.0000    0.2562 -999.0000    0.4212 
3082.5000    0.3669 -999.0000    0.3949 
3083.0000    0.2895 -999.0000    0.4076 
3083.5000    0.2905 -999.0000    0.3912 
3084.0000    0.2903 -999.0000    0.3876 
3084.5000    0.2818 -999.0000    0.3976 
3085.0000    0.2887 -999.0000    0.3993 
3085.5000    0.2687 -999.0000    0.4323 
3086.0000    0.2571 -999.0000    0.4432 
3086.5000    0.2730 -999.0000    0.4427 
3087.0000    0.3197 -999.0000    0.4216 
3087.5000    0.3239 -999.0000    0.4236 
3088.0000    0.3330 -999.0000    0.4140 
3088.5000    0.3494 -999.0000    0.3911 
3089.0000    0.3310 -999.0000    0.3706 
3089.5000    0.2208 -999.0000    0.3445 
3090.0000    0.1722 -999.0000    0.3010 
3090.5000    0.1199 -999.0000    0.3231 
3091.0000    0.0600 -999.0000    0.8207 
3091.5000    0.0244 -999.0000    1.0000 
3092.0000    0.0424 -999.0000    1.0000 
3092.5000    0.0465 -999.0000    0.8462 
3093.0000    0.0272 -999.0000    1.0000 
3093.5000    0.0277 -999.0000    1.0000 
3094.0000    0.0144 -999.0000    1.0000 
3094.5000    0.0032 -999.0000    1.0000 
3095.0000    0.0209 -999.0000    1.0000 
3095.5000    0.0364 -999.0000    1.0000 
3096.0000    0.0448 -999.0000    1.0000 
3096.5000    0.0743 -999.0000    1.0000 
3097.0000    0.1215 -999.0000    0.7294 
3097.5000    0.1584 -999.0000    0.6205 
3098.0000    0.1743 -999.0000    0.6152 
3098.5000    0.1762 -999.0000    0.6132 
3099.0000    0.1836 -999.0000    0.6072 
3099.5000    0.1917 -999.0000    0.6272 
3100.0000    0.1966 -999.0000    0.6352 
3100.5000    0.1974 -999.0000    0.6303 
3101.0000    0.1938 -999.0000    0.6484 
3101.5000    0.1888 -999.0000    0.6567 
3102.0000    0.1867 -999.0000    0.6702 
3102.5000    0.1803 -999.0000    0.6658 
3103.0000    0.1814 -999.0000    0.6566 
3103.5000    0.1804 -999.0000    0.6506 
3104.0000    0.1887 -999.0000    0.6327 
3104.5000    0.2085 -999.0000    0.5908 
3105.0000    0.2188 -999.0000    0.5592 
3105.5000    0.1853 -999.0000    0.5903 
3106.0000    0.1136 -999.0000    0.7589 
3106.5000    0.0608 -999.0000    1.0000 
3107.0000    0.0552 -999.0000    1.0000 
3107.5000    0.0707 -999.0000    0.7288 
3108.0000    0.1335 -999.0000    0.4495 
3108.5000    0.2972 -999.0000    0.4087 
3109.0000    0.3220 -999.0000    0.3479 
3109.5000    0.3156 -999.0000    0.3375 
3110.0000    0.2160 -999.0000    0.3746 
3110.5000    0.0815 -999.0000    0.4622 
3111.0000    0.0308 -999.0000    0.8018 
3111.5000    0.0001 -999.0000    1.0000 
3112.0000    0.0001 -999.0000    1.0000 
3112.5000    0.0237 -999.0000    1.0000 
3113.0000    0.0664 -999.0000    0.5308 
3113.5000    0.0826 -999.0000    0.5067 
3114.0000    0.0595 -999.0000    0.5984 
3114.5000    0.0510 -999.0000    0.6693 
3115.0000    0.1119 -999.0000    0.4742 
3115.5000    0.1680 -999.0000    0.4755 
3116.0000    0.1677 -999.0000    0.4752 
3116.5000    0.1943 -999.0000    0.3722 
3117.0000    0.2336 -999.0000    0.3461 
3117.5000    0.2053 -999.0000    0.4424 
3118.0000    0.1644 -999.0000    0.5716 
3118.5000    0.1602 -999.0000    0.5817 
3119.0000    0.1399 -999.0000    0.6224 
3119.5000    0.1043 -999.0000    0.7619 
3120.0000    0.1095 -999.0000    0.7141 
3120.5000    0.1700 -999.0000    0.5597 
3121.0000    0.1946 -999.0000    0.5379 
3121.5000    0.1477 -999.0000    0.6447 
3122.0000    0.1062 -999.0000    0.7449 
3122.5000    0.1019 -999.0000    0.7162 
3123.0000    0.1346 -999.0000    0.6147 
3123.5000    0.2519 -999.0000    0.4584 
3124.0000    0.2872 -999.0000    0.2923 
3124.5000    0.2712 -999.0000    0.3114 
3125.0000    0.1937 -999.0000    0.3771 
3125.5000    0.1917 -999.0000    0.3468 
3126.0000    0.1724 -999.0000    0.3682 
3126.5000    0.1216 -999.0000    0.4666 
3127.0000    0.1004 -999.0000    0.4979 
3127.5000    0.0964 -999.0000    0.4731 
3128.0000    0.1148 -999.0000    0.4102 
3128.5000    0.1729 -999.0000    0.3582 
3129.0000    0.2196 -999.0000    0.3625 
3129.5000    0.2092 -999.0000    0.3754 
3130.0000    0.1764 -999.0000    0.4236 
3130.5000    0.1416 -999.0000    0.6127 
3131.0000    0.2090 -999.0000    0.4380 
3131.5000    0.3007 -999.0000    0.4209 
3132.0000    0.2901 -999.0000    0.4285 
3132.5000    0.3070 -999.0000    0.4052 
3133.0000    0.3355 -999.0000    0.4197 
3133.5000    0.2194 -999.0000    0.4905 
3134.0000    0.1573 -999.0000    0.5702 
3134.5000    0.1447 -999.0000    0.5965 
3135.0000    0.1673 -999.0000    0.5540 
3135.5000    0.1633 -999.0000    0.5025 
3136.0000    0.1714 -999.0000    0.4772 
3136.5000    0.2974 -999.0000    0.4324 
3137.0000    0.3765 -999.0000    0.4161 
3137.5000    0.3458 -999.0000    0.4169 
3138.0000    0.3917 -999.0000    0.3979 
3138.5000    0.3431 -999.0000    0.3881 
3139.0000    0.2176 -999.0000    0.3761 
3139.5000    0.1998 -999.0000    0.4125 
3140.0000    0.2152 -999.0000    0.4527 
3140.5000    0.2307 -999.0000    0.4339 
3141.0000    0.1825 -999.0000    0.4065 
3141.5000    0.1071 -999.0000    0.6579 
3142.0000    0.0769 -999.0000    1.0000 
3142.5000    0.0763 -999.0000    0.7471 
3143.0000    0.0269 -999.0000    1.0000 
3143.5000    0.0001 -999.0000    1.0000 
3144.0000    0.0208 -999.0000    1.0000 
3144.5000    0.0399 -999.0000    1.0000 
3145.0000    0.0362 -999.0000    1.0000 
3145.5000    0.0270 -999.0000    1.0000 
3146.0000    0.0194 -999.0000    1.0000 
3146.5000    0.0001 -999.0000    1.0000 
3147.0000    0.0081 -999.0000    1.0000 
3147.5000    0.1002 -999.0000    0.5522 
3148.0000    0.1589 -999.0000    0.4629 
3148.5000    0.1354 -999.0000    0.4504 
3149.0000    0.1302 -999.0000    0.5225 
3149.5000    0.1375 -999.0000    0.5463 
3150.0000    0.1339 -999.0000    0.5673 
3150.5000    0.1138 -999.0000    0.5682 
3151.0000    0.1141 -999.0000    0.5858 
3151.5000    0.1027 -999.0000    0.6030 
3152.0000    0.0741 -999.0000    0.6795 
3152.5000    0.0655 -999.0000    0.7019 
3153.0000    0.1326 -999.0000    0.5103 
3153.5000    0.2316 -999.0000    0.3923 
3154.0000    0.2382 -999.0000    0.3628 
3154.5000    0.2151 -999.0000    0.3692 
3155.0000    0.1666 -999.0000    0.3790 
3155.5000    0.1612 -999.0000    0.3834 
3156.0000    0.2091 -999.0000    0.3664 
3156.5000    0.2198 -999.0000    0.3514 
3157.0000    0.1678 -999.0000    0.3707 
3157.5000    0.1251 -999.0000    0.5031 
3158.0000    0.0632 -999.0000    1.0000 
3158.5000    0.0852 -999.0000    1.0000 
3159.0000    0.1909 -999.0000    0.3588 
3159.5000    0.1428 -999.0000    0.5241 
3160.0000    0.2397 -999.0000    0.3761 
3160.5000    0.1982 -999.0000    0.4105 
3161.0000    0.0099 -999.0000    1.0000 
3161.5000    0.2242 -999.0000    0.4861 
3162.0000    0.1054 -999.0000    0.8526 
3162.5000    0.1409 -999.0000    0.4772 
3163.0000    0.0221 -999.0000    1.0000 
3163.5000    0.0001 -999.0000    1.0000 
3164.0000    0.0001 -999.0000    1.0000 
3164.5000    0.0001 -999.0000    1.0000 
3165.0000    0.0001 -999.0000    1.0000 
3165.5000    0.0177 -999.0000    1.0000 
3166.0000    0.1313 -999.0000    0.4494 
3166.5000    0.1779 -999.0000    0.3657 
3167.0000    0.1604 -999.0000    0.3434 
3167.5000    0.0960 -999.0000    0.4159 
3168.0000    0.0532 -999.0000    0.6044 
3168.5000    0.0494 -999.0000    0.6067 
3169.0000    0.0723 -999.0000    0.5993 
3169.5000    0.1170 -999.0000    0.5484 
3170.0000    0.1861 -999.0000    0.5242 
3170.5000    0.1969 -999.0000    0.5382 
3171.0000    0.1530 -999.0000    0.6025 
3171.5000    0.1311 -999.0000    0.6692 
