~VERSION INFORMATION
 VERS.                 2.0:   CWLS LOG ASCII STANDARD - VERSION 2.0
 WRAP.                  NO:   SINGLE LINE PER DEPTH STEP
 CREA.                 04/15/2020 08:51:23
#CREATED USING IP VERSION 4.5.2018.127 BY RODRIGC1 ON 04/15/2020 08:51:23
~WELL INFORMATION
#MNEM.UNIT       DATA                          DESCRIPTION MNEMONIC
#---------      ---------------------------   --------------------------
 STRT    .FT        330.0000                  : START DEPTH
 STOP    .FT        5034.0000                 : STOP DEPTH
 STEP    .FT        0.5000                    : STEP VALUE
 NULL    .      -999.0000                     : NULL VALUE
 DATE    .      04/15/2020                    : LAS file Creation Date
 WELL   .      CIRA-3900               : Well Name
 COM1   .      Original database: Rosy : Well Comment
 COMP   .      ECOPETROL S.A.          : Company
 FLD    .      LA CIRA INFANTAS        : Field
 STATE  .      SANTANDER               : State
 COUNT  .      COLOMBIA                : Country
 API    .      3900                    : API Number
 UWI    .      CIRA3900                : Unique Well Identifier (UWI)
 LOC    .      SURFACE COORDENATES     : Location
 TOWN   .      N/A                     : Township
 SCT    .      N/A                     : Section
 RANG   .      N/A                     : Range
 PDAT   .      GL                      : Permanent Datum
 EPDAT  .      307.1000                : Elevation of Permanent Datum
 LGMEA  .      DF                      : Log Measured from
 DRMEA  .      DF                      : Drill Measured From
 APDAT  .      16.0000                 : Elevation Above Permanent Datum
 KB     .      323.1000                : KB Elevation
 DF     .      323.1000                : DF Elevation
 GL     .      307.1000                : GL Elevation
 RWS    .      -999                    : Def_Rw
 WST    .      -999                    : Def_Rwt
 UTMZ   .      31                      : UTM Zone
 CNTY   .      BMEJA                   : County
 PROV   .      BARRANCABERMEJA         : Province
 SRVC   .      SCH                     : Contractor
 GDAT   .      WGS 84                  : Geodatum
 LONG   .      0                       : Longitude
 LATI   .      0                       : Latitude
 COORDIN.                              : Grid System
 XCOORD .                              : X or East-West Coordinate
 YCOORD .                              : Y or North-South Coordinate
~CURVE INFORMATION
#MNEM              UNIT       API CODE   Curve Type Comments
#----------  --------------- ----------  ---------- -----------
 DEPTH      .FT                        : Depth       
 PHIE       .Dec                       : Phi         
 K_3104     .                          :             
 SW         .Dec                       : Sw          
~A  DEPTH    PHIE     K_3104      SW    
# ...
1898.0000    0.1996 -999.0000    0.5537 
1898.5000    0.1978 -999.0000    0.5455 
1899.0000    0.1932 -999.0000    0.5327 
1899.5000    0.1966 -999.0000    0.5223 
1900.0000    0.1859 -999.0000    0.5125 
1900.5000    0.1492 -999.0000    0.6006 
1901.0000    0.0793 -999.0000    0.9085 
1901.5000    0.0310 -999.0000    1.0000 
1902.0000    0.0407 -999.0000    1.0000 
1902.5000    0.0788 -999.0000    0.8957 
1903.0000    0.1102 -999.0000    0.7682 
1903.5000    0.1331 -999.0000    0.6915 
1904.0000    0.1398 -999.0000    0.6571 
1904.5000    0.1381 -999.0000    0.6962 
1905.0000    0.1390 -999.0000    0.6817 
1905.5000    0.1577 -999.0000    0.6508 
1906.0000    0.1824 -999.0000    0.6416 
1906.5000    0.1879 -999.0000    0.6617 
1907.0000    0.1716 -999.0000    0.6512 
1907.5000    0.1683 -999.0000    0.6373 
1908.0000    0.1881 -999.0000    0.6219 
1908.5000    0.2035 -999.0000    0.5917 
1909.0000    0.1971 -999.0000    0.5982 
1909.5000    0.1833 -999.0000    0.6172 
1910.0000    0.1919 -999.0000    0.6138 
1910.5000    0.2158 -999.0000    0.6134 
1911.0000    0.2221 -999.0000    0.6034 
1911.5000    0.2230 -999.0000    0.5889 
1912.0000    0.2118 -999.0000    0.5725 
1912.5000    0.2124 -999.0000    0.5924 
1913.0000    0.2072 -999.0000    0.5897 
1913.5000    0.2081 -999.0000    0.5847 
1914.0000    0.1795 -999.0000    0.6347 
1914.5000    0.1058 -999.0000    0.8173 
1915.0000    0.0591 -999.0000    1.0000 
1915.5000    0.0489 -999.0000    1.0000 
1916.0000    0.0469 -999.0000    1.0000 
1916.5000    0.0306 -999.0000    1.0000 
1917.0000    0.0379 -999.0000    1.0000 
1917.5000    0.0706 -999.0000    1.0000 
1918.0000    0.1009 -999.0000    0.8155 
1918.5000    0.1089 -999.0000    0.8232 
1919.0000    0.1072 -999.0000    0.8703 
1919.5000    0.0937 -999.0000    0.9891 
1920.0000    0.0728 -999.0000    1.0000 
1920.5000    0.0662 -999.0000    1.0000 
1921.0000    0.0883 -999.0000    0.9615 
1921.5000    0.1299 -999.0000    0.7423 
1922.0000    0.1323 -999.0000    0.7183 
1922.5000    0.1244 -999.0000    0.7652 
1923.0000    0.1362 -999.0000    0.7683 
1923.5000    0.1365 -999.0000    0.7742 
1924.0000    0.1441 -999.0000    0.7181 
1924.5000    0.1470 -999.0000    0.7300 
1925.0000    0.1252 -999.0000    0.8589 
1925.5000    0.1190 -999.0000    0.8456 
1926.0000    0.1428 -999.0000    0.7115 
1926.5000    0.1557 -999.0000    0.6670 
1927.0000    0.1357 -999.0000    0.7546 
1927.5000    0.1000 -999.0000    0.9307 
1928.0000    0.0930 -999.0000    0.9822 
1928.5000    0.0936 -999.0000    0.9386 
1929.0000    0.1014 -999.0000    0.8507 
1929.5000    0.1168 -999.0000    0.8004 
1930.0000    0.1084 -999.0000    0.7881 
1930.5000    0.0991 -999.0000    0.8382 
1931.0000    0.0854 -999.0000    0.8813 
1931.5000    0.0908 -999.0000    0.8363 
1932.0000    0.0913 -999.0000    0.8111 
1932.5000    0.0702 -999.0000    0.8925 
1933.0000    0.0578 -999.0000    0.9928 
1933.5000    0.0877 -999.0000    0.7383 
1934.0000    0.1828 -999.0000    0.5315 
1934.5000    0.2417 -999.0000    0.4985 
1935.0000    0.2052 -999.0000    0.5619 
1935.5000    0.1413 -999.0000    0.7083 
1936.0000    0.0880 -999.0000    0.9428 
1936.5000    0.0662 -999.0000    1.0000 
1937.0000    0.0673 -999.0000    1.0000 
1937.5000    0.0819 -999.0000    1.0000 
1938.0000    0.0946 -999.0000    0.9811 
1938.5000    0.0958 -999.0000    1.0000 
1939.0000    0.0811 -999.0000    1.0000 
1939.5000    0.0830 -999.0000    1.0000 
1940.0000    0.1332 -999.0000    0.7917 
1940.5000    0.1834 -999.0000    0.6666 
1941.0000    0.1991 -999.0000    0.6148 
1941.5000    0.2162 -999.0000    0.5850 
1942.0000    0.2297 -999.0000    0.5811 
1942.5000    0.2280 -999.0000    0.6073 
1943.0000    0.2134 -999.0000    0.6186 
1943.5000    0.1972 -999.0000    0.6420 
1944.0000    0.1564 -999.0000    0.7948 
1944.5000    0.1141 -999.0000    1.0000 
1945.0000    0.1197 -999.0000    0.9551 
1945.5000    0.1801 -999.0000    0.7131 
1946.0000    0.2047 -999.0000    0.6640 
1946.5000    0.1790 -999.0000    0.7288 
1947.0000    0.1776 -999.0000    0.7284 
1947.5000    0.2135 -999.0000    0.6326 
1948.0000    0.2037 -999.0000    0.6743 
1948.5000    0.1296 -999.0000    0.8410 
1949.0000    0.0730 -999.0000    1.0000 
1949.5000    0.0736 -999.0000    1.0000 
1950.0000    0.1147 -999.0000    0.7707 
1950.5000    0.1525 -999.0000    0.6770 
1951.0000    0.1297 -999.0000    0.7250 
1951.5000    0.0569 -999.0000    1.0000 
1952.0000    0.0263 -999.0000    1.0000 
1952.5000    0.0852 -999.0000    0.7100 
1953.0000    0.1712 -999.0000    0.5519 
1953.5000    0.2396 -999.0000    0.5468 
1954.0000    0.2319 -999.0000    0.5782 
1954.5000    0.1808 -999.0000    0.6919 
1955.0000    0.1376 -999.0000    0.7963 
1955.5000    0.1318 -999.0000    0.8376 
1956.0000    0.1113 -999.0000    0.9562 
1956.5000    0.0924 -999.0000    1.0000 
1957.0000    0.1142 -999.0000    0.9313 
1957.5000    0.1311 -999.0000    0.8707 
1958.0000    0.1249 -999.0000    0.9229 
1958.5000    0.1193 -999.0000    0.9683 
1959.0000    0.1200 -999.0000    0.9922 
1959.5000    0.1226 -999.0000    0.9550 
1960.0000    0.1401 -999.0000    0.8263 
1960.5000    0.1617 -999.0000    0.7306 
1961.0000    0.1618 -999.0000    0.6868 
1961.5000    0.1526 -999.0000    0.7432 
1962.0000    0.1516 -999.0000    0.7918 
1962.5000    0.1730 -999.0000    0.7387 
1963.0000    0.1774 -999.0000    0.7257 
1963.5000    0.1368 -999.0000    0.8517 
1964.0000    0.0911 -999.0000    1.0000 
1964.5000    0.0802 -999.0000    1.0000 
1965.0000    0.0832 -999.0000    1.0000 
1965.5000    0.1342 -999.0000    0.7186 
1966.0000    0.2593 -999.0000    0.5412 
1966.5000    0.3594 -999.0000    0.4775 
1967.0000    0.3766 -999.0000    0.4889 
1967.5000    0.2471 -999.0000    0.4857 
1968.0000    0.2512 -999.0000    0.6102 
1968.5000    0.1546 -999.0000    0.7137 
1969.0000    0.1251 -999.0000    0.7429 
1969.5000    0.1080 -999.0000    0.7298 
1970.0000    0.0983 -999.0000    0.6758 
1970.5000    0.1505 -999.0000    0.5137 
1971.0000    0.2323 -999.0000    0.3930 
1971.5000    0.2227 -999.0000    0.4110 
1972.0000    0.1252 -999.0000    0.6360 
1972.5000    0.0823 -999.0000    0.8965 
1973.0000    0.1101 -999.0000    0.7514 
1973.5000    0.1353 -999.0000    0.6909 
1974.0000    0.1378 -999.0000    0.6594 
1974.5000    0.1387 -999.0000    0.5942 
1975.0000    0.1410 -999.0000    0.5042 
1975.5000    0.1179 -999.0000    0.5135 
1976.0000    0.0752 -999.0000    0.7534 
1976.5000    0.0458 -999.0000    1.0000 
1977.0000    0.0566 -999.0000    1.0000 
1977.5000    0.1062 -999.0000    0.5904 
1978.0000    0.1148 -999.0000    0.4983 
1978.5000    0.0615 -999.0000    0.9238 
1979.0000    0.0407 -999.0000    1.0000 
1979.5000    0.0603 -999.0000    1.0000 
1980.0000    0.0328 -999.0000    1.0000 
1980.5000    0.0884 -999.0000    0.7365 
1981.0000    0.0884 -999.0000    0.5834 
1981.5000    0.0983 -999.0000    0.5376 
1982.0000    0.1845 -999.0000    0.4421 
1982.5000    0.2372 -999.0000    0.3743 
1983.0000    0.2300 -999.0000    0.5067 
1983.5000    0.1112 -999.0000    0.6485 
1984.0000    0.0747 -999.0000    0.9344 
1984.5000    0.0673 -999.0000    1.0000 
1985.0000    0.0636 -999.0000    1.0000 
1985.5000    0.0687 -999.0000    1.0000 
1986.0000    0.0799 -999.0000    1.0000 
1986.5000    0.0901 -999.0000    1.0000 
1987.0000    0.1038 -999.0000    0.9339 
1987.5000    0.1431 -999.0000    0.7781 
1988.0000    0.1826 -999.0000    0.6754 
1988.5000    0.2312 -999.0000    0.6240 
1989.0000    0.2521 -999.0000    0.6153 
1989.5000    0.2467 -999.0000    0.6104 
1990.0000    0.2616 -999.0000    0.6237 
1990.5000    0.2510 -999.0000    0.6419 
1991.0000    0.2272 -999.0000    0.6831 
1991.5000    0.2132 -999.0000    0.7338 
1992.0000    0.1989 -999.0000    0.7672 
1992.5000    0.1775 -999.0000    0.7902 
1993.0000    0.1757 -999.0000    0.8016 
1993.5000    0.1958 -999.0000    0.8109 
1994.0000    0.2022 -999.0000    0.8245 
1994.5000    0.2074 -999.0000    0.8065 
1995.0000    0.2127 -999.0000    0.7952 
1995.5000    0.2091 -999.0000    0.8089 
