~VERSION INFORMATION
 VERS.                 2.0:   CWLS LOG ASCII STANDARD - VERSION 2.0
 WRAP.                  NO:   SINGLE LINE PER DEPTH STEP
 CREA.                 04/15/2020 08:51:23
#CREATED USING IP VERSION 4.5.2018.127 BY RODRIGC1 ON 04/15/2020 08:51:23
~WELL INFORMATION
#MNEM.UNIT       DATA                          DESCRIPTION MNEMONIC
#---------      ---------------------------   --------------------------
 STRT    .FT        330.0000                  : START DEPTH
 STOP    .FT        5034.0000                 : STOP DEPTH
 STEP    .FT        0.5000                    : STEP VALUE
 NULL    .      -999.0000                     : NULL VALUE
 DATE    .      04/15/2020                    : LAS file Creation Date
 WELL   .      CIRA-3900               : Well Name
 COM1   .      Original database: Rosy : Well Comment
 COMP   .      ECOPETROL S.A.          : Company
 FLD    .      LA CIRA INFANTAS        : Field
 STATE  .      SANTANDER               : State
 COUNT  .      COLOMBIA                : Country
 API    .      3900                    : API Number
 UWI    .      CIRA3900                : Unique Well Identifier (UWI)
 LOC    .      SURFACE COORDENATES     : Location
 TOWN   .      N/A                     : Township
 SCT    .      N/A                     : Section
 RANG   .      N/A                     : Range
 PDAT   .      GL                      : Permanent Datum
 EPDAT  .      307.1000                : Elevation of Permanent Datum
 LGMEA  .      DF                      : Log Measured from
 DRMEA  .      DF                      : Drill Measured From
 APDAT  .      16.0000                 : Elevation Above Permanent Datum
 KB     .      323.1000                : KB Elevation
 DF     .      323.1000                : DF Elevation
 GL     .      307.1000                : GL Elevation
 RWS    .      -999                    : Def_Rw
 WST    .      -999                    : Def_Rwt
 UTMZ   .      31                      : UTM Zone
 CNTY   .      BMEJA                   : County
 PROV   .      BARRANCABERMEJA         : Province
 SRVC   .      SCH                     : Contractor
 GDAT   .      WGS 84                  : Geodatum
 LONG   .      0                       : Longitude
 LATI   .      0                       : Latitude
 COORDIN.                              : Grid System
 XCOORD .                              : X or East-West Coordinate
 YCOORD .                              : Y or North-South Coordinate
~CURVE INFORMATION
#MNEM              UNIT       API CODE   Curve Type Comments
#----------  --------------- ----------  ---------- -----------
 DEPTH      .FT                        : Depth       
 PHIE       .Dec                       : Phi         
 K_3104     .                          :             
 SW         .Dec                       : Sw          
~A  DEPTH    PHIE     K_3104      SW    
# ...
4348.0000    0.0001    0.6676    1.0000 
4348.5000    0.0001    0.6641    1.0000 
4349.0000    0.0001    0.6576    1.0000 
4349.5000    0.0001    0.6922    1.0000 
4350.0000    0.0001    0.6806    1.0000 
4350.5000    0.0001    0.6941    1.0000 
4351.0000    0.0001    0.7053    1.0000 
4351.5000    0.0001    0.7117    1.0000 
4352.0000    0.0001    0.6673    1.0000 
4352.5000    0.0001    0.6679    1.0000 
4353.0000    0.0001    0.6940    1.0000 
4353.5000    0.0001    0.7014    1.0000 
4354.0000    0.0001    0.6297    1.0000 
4354.5000    0.0045    0.6167    1.0000 
4355.0000    0.0001    0.7525    1.0000 
4355.5000    0.0001    0.8128    1.0000 
4356.0000    0.0001    0.8420    1.0000 
4356.5000    0.0310    0.7213    0.2046 
4357.0000    0.0116    0.6357    0.9809 
4357.5000    0.0001    0.6153    1.0000 
4358.0000    0.0001    0.6268    1.0000 
4358.5000    0.0001    0.6420    1.0000 
4359.0000    0.0001    0.6596    1.0000 
4359.5000    0.0001    0.6728    1.0000 
4360.0000    0.0001    0.6854    1.0000 
4360.5000    0.0001    0.9118    1.0000 
4361.0000    0.0001    1.9982    1.0000 
4361.5000    0.0001    7.0955    1.0000 
4362.0000    0.0419   29.0305    1.0000 
4362.5000    0.0704   40.8848    1.0000 
4363.0000    0.1014  124.7871    0.8413 
4363.5000    0.1366  624.8828    0.7272 
4364.0000    0.1355  717.6681    0.7333 
4364.5000    0.1067   68.7900    0.7505 
4365.0000    0.0746    0.8222    0.8122 
4365.5000    0.0303    0.4208    1.0000 
4366.0000    0.0001    0.4461    1.0000 
4366.5000    0.0001    0.5378    1.0000 
4367.0000    0.0001    0.6750    1.0000 
4367.5000    0.0001    0.6561    1.0000 
4368.0000    0.0001    0.6332    1.0000 
4368.5000    0.0001    0.6308    1.0000 
4369.0000    0.0001    0.6806    1.0000 
4369.5000    0.0001    2.3126    1.0000 
4370.0000    0.0001    6.1933    1.0000 
4370.5000    0.0184   17.1481    1.0000 
4371.0000    0.0859   29.9476    0.8928 
4371.5000    0.1227  145.7290    0.7912 
4372.0000    0.1257  151.8174    0.8174 
4372.5000    0.1197   32.9843    0.8824 
4373.0000    0.1181   21.7593    0.8998 
4373.5000    0.1300   38.2081    0.8485 
4374.0000    0.1442   59.4798    0.8089 
4374.5000    0.1333   54.6441    0.8208 
4375.0000    0.1272   30.9620    0.8431 
4375.5000    0.1305   22.4937    0.8561 
4376.0000    0.1269   31.5186    0.8849 
4376.5000    0.1314   48.5388    0.8840 
4377.0000    0.1429   57.7530    0.8579 
4377.5000    0.1459   73.4424    0.8100 
4378.0000    0.1606   87.6085    0.7507 
4378.5000    0.1771  111.3124    0.7359 
4379.0000    0.1792  148.2596    0.7340 
4379.5000    0.1810  188.9629    0.7009 
4380.0000    0.1944  278.5199    0.6852 
4380.5000    0.2045  443.9768    0.6918 
4381.0000    0.2064  566.7186    0.7068 
4381.5000    0.2083  660.4507    0.7212 
4382.0000    0.2079  784.7546    0.7380 
4382.5000    0.1953  946.5148    0.7860 
4383.0000    0.1875  827.6890    0.8157 
4383.5000    0.1724  339.7526    0.8398 
4384.0000    0.1261   46.3827    1.0000 
4384.5000    0.1068   19.3353    1.0000 
4385.0000    0.1499   32.9414    0.9747 
4385.5000    0.1997  204.6678    0.7923 
4386.0000    0.2025  595.8402    0.7887 
4386.5000    0.1776  493.3615    0.8437 
4387.0000    0.1489  119.0247    0.9183 
4387.5000    0.1229   13.5722    0.9950 
4388.0000    0.0980    6.0587    1.0000 
4388.5000    0.0861    5.6485    1.0000 
4389.0000    0.0916   10.3044    1.0000 
4389.5000    0.0926   10.7501    1.0000 
4390.0000    0.0589    1.2852    1.0000 
4390.5000    0.0126    0.6659    1.0000 
4391.0000    0.0001    1.0407    1.0000 
4391.5000    0.0001    2.2006    1.0000 
4392.0000    0.0292    5.1982    1.0000 
4392.5000    0.0819    4.9053    0.6942 
4393.0000    0.0991   52.0153    0.6663 
4393.5000    0.0745    4.5674    0.7787 
4394.0000    0.0170    0.5859    1.0000 
4394.5000    0.0001    0.4153    1.0000 
4395.0000    0.0001    0.4293    1.0000 
4395.5000    0.0001    0.6715    1.0000 
4396.0000    0.0001    1.7168    1.0000 
4396.5000    0.0001   17.2486    1.0000 
4397.0000    0.0001   37.9185    1.0000 
4397.5000    0.0675   54.3689    1.0000 
4398.0000    0.1677  300.4521    0.6520 
4398.5000    0.1983 2341.6289    0.6369 
4399.0000    0.1780 1349.2880    0.6554 
4399.5000    0.1440  157.3802    0.6682 
4400.0000    0.1053    8.0024    0.7836 
4400.5000    0.0632    3.9125    1.0000 
4401.0000    0.0388    5.6205    1.0000 
4401.5000    0.0412    6.2220    1.0000 
4402.0000    0.0842   10.0783    0.9141 
4402.5000    0.1139   70.1776    0.7552 
4403.0000    0.0796    2.2733    0.8501 
4403.5000    0.0001    0.5337    1.0000 
4404.0000    0.0001    0.4322    1.0000 
4404.5000    0.0001    0.4645    1.0000 
4405.0000    0.0001    0.8860    1.0000 
4405.5000    0.0001    3.8276    1.0000 
4406.0000    0.0001    7.2308    1.0000 
4406.5000    0.0387   14.2960    1.0000 
4407.0000    0.1067   37.1336    0.7727 
4407.5000    0.1245  102.5662    0.7231 
4408.0000    0.1257   59.9388    0.7590 
4408.5000    0.1305   32.7512    0.8000 
4409.0000    0.1444   38.5703    0.7512 
4409.5000    0.1543   54.2250    0.6987 
4410.0000    0.1686  128.9232    0.6801 
4410.5000    0.1905  548.7272    0.6459 
4411.0000    0.1953  911.6095    0.6303 
4411.5000    0.1885  827.2742    0.6501 
4412.0000    0.1848 1268.1610    0.6306 
4412.5000    0.1907 1627.1670    0.5900 
4413.0000    0.1896 1060.4399    0.5462 
4413.5000    0.1573  273.6637    0.4968 
4414.0000    0.1112    1.3290    0.4686 
4414.5000    0.0492    0.4920    1.0000 
4415.0000    0.0001    0.4752    1.0000 
4415.5000    0.0001    0.6461    1.0000 
4416.0000    0.0001    1.0931    1.0000 
4416.5000    0.0001    1.0501    1.0000 
4417.0000    0.0001    1.0283    1.0000 
4417.5000    0.0001    1.0907    1.0000 
4418.0000    0.0001    1.2894    1.0000 
4418.5000    0.0001    1.4250    1.0000 
4419.0000    0.0001    1.4589    1.0000 
4419.5000    0.0001    1.4301    1.0000 
4420.0000    0.0001    1.3438    1.0000 
4420.5000    0.0001    1.2871    1.0000 
4421.0000    0.0001    1.3174    1.0000 
4421.5000    0.0001    1.3111    1.0000 
4422.0000    0.0001    1.1988    1.0000 
4422.5000    0.0001    1.1108    1.0000 
4423.0000    0.0001    1.1203    1.0000 
4423.5000    0.0001    1.1359    1.0000 
4424.0000    0.0001    1.1218    1.0000 
4424.5000    0.0001    1.1150    1.0000 
4425.0000    0.0001    1.0889    1.0000 
4425.5000    0.0001    1.0280    1.0000 
4426.0000    0.0001    1.1808    1.0000 
4426.5000    0.0001    1.2305    1.0000 
4427.0000    0.0001    1.2398    1.0000 
4427.5000    0.0001    1.1304    1.0000 
4428.0000    0.0001    1.0243    1.0000 
4428.5000    0.0001    0.9679    1.0000 
4429.0000    0.0001    0.9183    1.0000 
4429.5000    0.0001    0.8645    1.0000 
4430.0000    0.0001    0.8463    1.0000 
4430.5000    0.0001    0.8837    1.0000 
4431.0000    0.0001    1.0011    1.0000 
4431.5000    0.0001    1.1341    1.0000 
4432.0000    0.0001    1.1438    1.0000 
4432.5000    0.0001    1.2046    1.0000 
4433.0000    0.0001    1.3113    1.0000 
4433.5000    0.0001    1.3504    1.0000 
4434.0000    0.0021    1.3835    1.0000 
4434.5000    0.0040    1.3659    1.0000 
4435.0000    0.0001    1.1852    1.0000 
4435.5000    0.0001    1.0057    1.0000 
4436.0000    0.0001    0.9421    1.0000 
4436.5000    0.0001    0.9754    1.0000 
4437.0000    0.0001    1.0346    1.0000 
4437.5000    0.0001    1.0217    1.0000 
4438.0000    0.0001    1.0053    1.0000 
4438.5000    0.0001    1.0210    1.0000 
4439.0000    0.0001    1.0489    1.0000 
4439.5000    0.0001    1.1037    1.0000 
4440.0000    0.0001    1.1232    1.0000 
4440.5000    0.0001    1.0196    1.0000 
4441.0000    0.0001    0.9179    1.0000 
4441.5000    0.0001    0.8665    1.0000 
4442.0000    0.0001    0.8540    1.0000 
4442.5000    0.0001    0.8823    1.0000 
4443.0000    0.0001    0.9539    1.0000 
4443.5000    0.0001    1.0449    1.0000 
4444.0000    0.0001    1.0691    1.0000 
4444.5000    0.0001    1.0538    1.0000 
4445.0000    0.0001    1.0027    1.0000 
4445.5000    0.0001    0.9323    1.0000 
