~VERSION INFORMATION
 VERS.                 2.0:   CWLS LOG ASCII STANDARD - VERSION 2.0
 WRAP.                  NO:   SINGLE LINE PER DEPTH STEP
 CREA.                 04/15/2020 08:51:23
#CREATED USING IP VERSION 4.5.2018.127 BY RODRIGC1 ON 04/15/2020 08:51:23
~WELL INFORMATION
#MNEM.UNIT       DATA                          DESCRIPTION MNEMONIC
#---------      ---------------------------   --------------------------
 STRT    .FT        330.0000                  : START DEPTH
 STOP    .FT        5034.0000                 : STOP DEPTH
 STEP    .FT        0.5000                    : STEP VALUE
 NULL    .      -999.0000                     : NULL VALUE
 DATE    .      04/15/2020                    : LAS file Creation Date
 WELL   .      CIRA-3900               : Well Name
 COM1   .      Original database: Rosy : Well Comment
 COMP   .      ECOPETROL S.A.          : Company
 FLD    .      LA CIRA INFANTAS        : Field
 STATE  .      SANTANDER               : State
 COUNT  .      COLOMBIA                : Country
 API    .      3900                    : API Number
 UWI    .      CIRA3900                : Unique Well Identifier (UWI)
 LOC    .      SURFACE COORDENATES     : Location
 TOWN   .      N/A                     : Township
 SCT    .      N/A                     : Section
 RANG   .      N/A                     : Range
 PDAT   .      GL                      : Permanent Datum
 EPDAT  .      307.1000                : Elevation of Permanent Datum
 LGMEA  .      DF                      : Log Measured from
 DRMEA  .      DF                      : Drill Measured From
 APDAT  .      16.0000                 : Elevation Above Permanent Datum
 KB     .      323.1000                : KB Elevation
 DF     .      323.1000                : DF Elevation
 GL     .      307.1000                : GL Elevation
 RWS    .      -999                    : Def_Rw
 WST    .      -999                    : Def_Rwt
 UTMZ   .      31                      : UTM Zone
 CNTY   .      BMEJA                   : County
 PROV   .      BARRANCABERMEJA         : Province
 SRVC   .      SCH                     : Contractor
 GDAT   .      WGS 84                  : Geodatum
 LONG   .      0                       : Longitude
 LATI   .      0                       : Latitude
 COORDIN.                              : Grid System
 XCOORD .                              : X or East-West Coordinate
 YCOORD .                              : Y or North-South Coordinate
~CURVE INFORMATION
#MNEM              UNIT       API CODE   Curve Type Comments
#----------  --------------- ----------  ---------- -----------
 DEPTH      .FT                        : Depth       
 PHIE       .Dec                       : Phi         
 K_3104     .                          :             
 SW         .Dec                       : Sw          
~A  DEPTH    PHIE     K_3104      SW    
# ...
 918.0000    0.1556 -999.0000    0.2842 
 918.5000    0.1799 -999.0000    0.3078 
 919.0000    0.1957 -999.0000    0.2861 
 919.5000    0.2078 -999.0000    0.2794 
 920.0000    0.2100 -999.0000    0.2828 
 920.5000    0.2048 -999.0000    0.2817 
 921.0000    0.2026 -999.0000    0.2834 
 921.5000    0.1887 -999.0000    0.2761 
 922.0000    0.1754 -999.0000    0.2730 
 922.5000    0.1776 -999.0000    0.2811 
 923.0000    0.1849 -999.0000    0.2836 
 923.5000    0.1851 -999.0000    0.2698 
 924.0000    0.1917 -999.0000    0.2833 
 924.5000    0.2033 -999.0000    0.2817 
 925.0000    0.2180 -999.0000    0.2804 
 925.5000    0.2280 -999.0000    0.2722 
 926.0000    0.2299 -999.0000    0.2450 
 926.5000    0.2364 -999.0000    0.2514 
 927.0000    0.2350 -999.0000    0.2461 
 927.5000    0.2337 -999.0000    0.2417 
 928.0000    0.2411 -999.0000    0.2493 
 928.5000    0.2515 -999.0000    0.2485 
 929.0000    0.2590 -999.0000    0.2655 
 929.5000    0.2486 -999.0000    0.2437 
 930.0000    0.2607 -999.0000    0.2486 
 930.5000    0.2597 -999.0000    0.2791 
 931.0000    0.1916 -999.0000    0.2776 
 931.5000    0.1147 -999.0000    0.2933 
 932.0000    0.0969 -999.0000    0.3197 
 932.5000    0.1436 -999.0000    0.3191 
 933.0000    0.1877 -999.0000    0.3272 
 933.5000    0.1948 -999.0000    0.3475 
 934.0000    0.1822 -999.0000    0.3813 
 934.5000    0.1397 -999.0000    0.3935 
 935.0000    0.1016 -999.0000    0.3852 
 935.5000    0.1144 -999.0000    0.3296 
 936.0000    0.1612 -999.0000    0.3324 
 936.5000    0.1649 -999.0000    0.3305 
 937.0000    0.1393 -999.0000    0.3267 
 937.5000    0.1329 -999.0000    0.3013 
 938.0000    0.1421 -999.0000    0.3113 
 938.5000    0.1420 -999.0000    0.3112 
 939.0000    0.1531 -999.0000    0.2884 
 939.5000    0.1932 -999.0000    0.2800 
 940.0000    0.2289 -999.0000    0.2656 
 940.5000    0.2357 -999.0000    0.2370 
 941.0000    0.2359 -999.0000    0.2364 
 941.5000    0.2374 -999.0000    0.2486 
 942.0000    0.2356 -999.0000    0.2339 
 942.5000    0.2401 -999.0000    0.2257 
 943.0000    0.2493 -999.0000    0.2257 
 943.5000    0.2583 -999.0000    0.2230 
 944.0000    0.2580 -999.0000    0.2051 
 944.5000    0.2590 -999.0000    0.2032 
 945.0000    0.2574 -999.0000    0.2131 
 945.5000    0.2476 -999.0000    0.2208 
 946.0000    0.2359 -999.0000    0.2187 
 946.5000    0.2334 -999.0000    0.2102 
 947.0000    0.2428 -999.0000    0.2284 
 947.5000    0.2362 -999.0000    0.2239 
 948.0000    0.2256 -999.0000    0.2054 
 948.5000    0.2267 -999.0000    0.1886 
 949.0000    0.2337 -999.0000    0.1982 
 949.5000    0.2277 -999.0000    0.2056 
 950.0000    0.2242 -999.0000    0.2363 
 950.5000    0.2230 -999.0000    0.2661 
 951.0000    0.1982 -999.0000    0.2509 
 951.5000    0.1911 -999.0000    0.2703 
 952.0000    0.1938 -999.0000    0.2682 
 952.5000    0.1992 -999.0000    0.2793 
 953.0000    0.2084 -999.0000    0.2929 
 953.5000    0.2146 -999.0000    0.3113 
 954.0000    0.2107 -999.0000    0.3270 
 954.5000    0.2008 -999.0000    0.3260 
 955.0000    0.1931 -999.0000    0.3049 
 955.5000    0.1858 -999.0000    0.3254 
 956.0000    0.1621 -999.0000    0.3702 
 956.5000    0.1494 -999.0000    0.3828 
 957.0000    0.1664 -999.0000    0.3773 
 957.5000    0.1691 -999.0000    0.3420 
 958.0000    0.1654 -999.0000    0.3157 
 958.5000    0.1702 -999.0000    0.3114 
 959.0000    0.1652 -999.0000    0.3127 
 959.5000    0.1545 -999.0000    0.3119 
 960.0000    0.1577 -999.0000    0.3128 
 960.5000    0.1712 -999.0000    0.3200 
 961.0000    0.1802 -999.0000    0.3221 
 961.5000    0.1874 -999.0000    0.3097 
 962.0000    0.1995 -999.0000    0.2985 
 962.5000    0.2010 -999.0000    0.3010 
 963.0000    0.1949 -999.0000    0.2933 
 963.5000    0.2004 -999.0000    0.2957 
 964.0000    0.2097 -999.0000    0.3062 
 964.5000    0.2111 -999.0000    0.2929 
 965.0000    0.2056 -999.0000    0.2824 
 965.5000    0.2002 -999.0000    0.2867 
 966.0000    0.1981 -999.0000    0.2994 
 966.5000    0.1962 -999.0000    0.3219 
 967.0000    0.2059 -999.0000    0.3281 
 967.5000    0.2146 -999.0000    0.3001 
 968.0000    0.2124 -999.0000    0.2909 
 968.5000    0.2078 -999.0000    0.3090 
 969.0000    0.2001 -999.0000    0.3069 
 969.5000    0.2011 -999.0000    0.3128 
 970.0000    0.2061 -999.0000    0.3032 
 970.5000    0.2093 -999.0000    0.2982 
 971.0000    0.2131 -999.0000    0.2988 
 971.5000    0.2156 -999.0000    0.2961 
 972.0000    0.2064 -999.0000    0.2901 
 972.5000    0.1912 -999.0000    0.2783 
 973.0000    0.1777 -999.0000    0.2756 
 973.5000    0.1772 -999.0000    0.2924 
 974.0000    0.1917 -999.0000    0.3079 
 974.5000    0.1968 -999.0000    0.3004 
 975.0000    0.1904 -999.0000    0.2795 
 975.5000    0.1939 -999.0000    0.2623 
 976.0000    0.2159 -999.0000    0.2742 
 976.5000    0.2348 -999.0000    0.2902 
 977.0000    0.2383 -999.0000    0.3166 
 977.5000    0.2229 -999.0000    0.3349 
 978.0000    0.2051 -999.0000    0.3666 
 978.5000    0.1853 -999.0000    0.3810 
 979.0000    0.1645 -999.0000    0.4220 
 979.5000    0.1405 -999.0000    0.4573 
 980.0000    0.1334 -999.0000    0.4522 
 980.5000    0.1362 -999.0000    0.4695 
 981.0000    0.1372 -999.0000    0.5194 
 981.5000    0.1397 -999.0000    0.5465 
 982.0000    0.1316 -999.0000    0.5490 
 982.5000    0.0923 -999.0000    0.6352 
 983.0000    0.0442 -999.0000    1.0000 
 983.5000    0.0422 -999.0000    1.0000 
 984.0000    0.0825 -999.0000    0.6500 
 984.5000    0.1382 -999.0000    0.4677 
 985.0000    0.1860 -999.0000    0.4272 
 985.5000    0.2088 -999.0000    0.4311 
 986.0000    0.1661 -999.0000    0.4547 
 986.5000    0.0998 -999.0000    0.5819 
 987.0000    0.0783 -999.0000    0.6964 
 987.5000    0.1032 -999.0000    0.4905 
 988.0000    0.1291 -999.0000    0.4508 
 988.5000    0.1572 -999.0000    0.4388 
 989.0000    0.1700 -999.0000    0.3664 
 989.5000    0.1963 -999.0000    0.4371 
 990.0000    0.1564 -999.0000    0.4736 
 990.5000    0.1079 -999.0000    0.5923 
 991.0000    0.0878 -999.0000    0.6804 
 991.5000    0.1017 -999.0000    0.6224 
 992.0000    0.1439 -999.0000    0.4845 
 992.5000    0.1954 -999.0000    0.3978 
 993.0000    0.2178 -999.0000    0.3688 
 993.5000    0.2076 -999.0000    0.3558 
 994.0000    0.1977 -999.0000    0.3517 
 994.5000    0.1992 -999.0000    0.3620 
 995.0000    0.1951 -999.0000    0.3965 
 995.5000    0.1831 -999.0000    0.4075 
 996.0000    0.1742 -999.0000    0.3956 
 996.5000    0.1633 -999.0000    0.3915 
 997.0000    0.1527 -999.0000    0.4003 
 997.5000    0.1546 -999.0000    0.3977 
 998.0000    0.1674 -999.0000    0.3892 
 998.5000    0.1751 -999.0000    0.3886 
 999.0000    0.1708 -999.0000    0.3615 
 999.5000    0.1581 -999.0000    0.3379 
1000.0000    0.1225 -999.0000    0.2838 
1000.5000    0.1073 -999.0000    0.3086 
1001.0000    0.1142 -999.0000    0.3780 
1001.5000    0.1485 -999.0000    0.3764 
1002.0000    0.1484 -999.0000    0.3211 
1002.5000    0.1075 -999.0000    0.2996 
1003.0000    0.0757 -999.0000    0.3242 
1003.5000    0.0772 -999.0000    0.1970 
1004.0000    0.1110 -999.0000    0.1801 
1004.5000    0.1184 -999.0000    0.1348 
1005.0000    0.1219 -999.0000    0.1617 
1005.5000    0.1436 -999.0000    0.2443 
1006.0000    0.1718 -999.0000    0.2296 
1006.5000    0.2080 -999.0000    0.2237 
1007.0000    0.2131 -999.0000    0.1995 
1007.5000    0.2115 -999.0000    0.2085 
1008.0000    0.2149 -999.0000    0.2168 
1008.5000    0.2266 -999.0000    0.2391 
1009.0000    0.2246 -999.0000    0.2420 
1009.5000    0.2172 -999.0000    0.2248 
1010.0000    0.2230 -999.0000    0.2358 
1010.5000    0.2292 -999.0000    0.2370 
1011.0000    0.2394 -999.0000    0.2325 
1011.5000    0.2458 -999.0000    0.2214 
1012.0000    0.2551 -999.0000    0.2431 
1012.5000    0.2435 -999.0000    0.2274 
1013.0000    0.2366 -999.0000    0.2154 
1013.5000    0.2414 -999.0000    0.2298 
1014.0000    0.2272 -999.0000    0.2127 
1014.5000    0.2156 -999.0000    0.2210 
1015.0000    0.2079 -999.0000    0.2346 
1015.5000    0.2098 -999.0000    0.2746 
