~VERSION INFORMATION
 VERS.                 2.0:   CWLS LOG ASCII STANDARD - VERSION 2.0
 WRAP.                  NO:   SINGLE LINE PER DEPTH STEP
 CREA.                 04/15/2020 08:51:23
#CREATED USING IP VERSION 4.5.2018.127 BY RODRIGC1 ON 04/15/2020 08:51:23
~WELL INFORMATION
#MNEM.UNIT       DATA                          DESCRIPTION MNEMONIC
#---------      ---------------------------   --------------------------
 STRT    .FT        330.0000                  : START DEPTH
 STOP    .FT        5034.0000                 : STOP DEPTH
 STEP    .FT        0.5000                    : STEP VALUE
 NULL    .      -999.0000                     : NULL VALUE
 DATE    .      04/15/2020                    : LAS file Creation Date
 WELL   .      CIRA-3900               : Well Name
 COM1   .      Original database: Rosy : Well Comment
 COMP   .      ECOPETROL S.A.          : Company
 FLD    .      LA CIRA INFANTAS        : Field
 STATE  .      SANTANDER               : State
 COUNT  .      COLOMBIA                : Country
 API    .      3900                    : API Number
 UWI    .      CIRA3900                : Unique Well Identifier (UWI)
 LOC    .      SURFACE COORDENATES     : Location
 TOWN   .      N/A                     : Township
 SCT    .      N/A                     : Section
 RANG   .      N/A                     : Range
 PDAT   .      GL                      : Permanent Datum
 EPDAT  .      307.1000                : Elevation of Permanent Datum
 LGMEA  .      DF                      : Log Measured from
 DRMEA  .      DF                      : Drill Measured From
 APDAT  .      16.0000                 : Elevation Above Permanent Datum
 KB     .      323.1000                : KB Elevation
 DF     .      323.1000                : DF Elevation
 GL     .      307.1000                : GL Elevation
 RWS    .      -999                    : Def_Rw
 WST    .      -999                    : Def_Rwt
 UTMZ   .      31                      : UTM Zone
 CNTY   .      BMEJA                   : County
 PROV   .      BARRANCABERMEJA         : Province
 SRVC   .      SCH                     : Contractor
 GDAT   .      WGS 84                  : Geodatum
 LONG   .      0                       : Longitude
 LATI   .      0                       : Latitude
 COORDIN.                              : Grid System
 XCOORD .                              : X or East-West Coordinate
 YCOORD .                              : Y or North-South Coordinate
~CURVE INFORMATION
#MNEM              UNIT       API CODE   Curve Type Comments
#----------  --------------- ----------  ---------- -----------
 DEPTH      .FT                        : Depth       
 PHIE       .Dec                       : Phi         
 K_3104     .                          :             
 SW         .Dec                       : Sw          
~A  DEPTH    PHIE     K_3104      SW    
# ...
3368.0000    0.0001 -999.0000    1.0000 
3368.5000    0.0001 -999.0000    1.0000 
3369.0000    0.0742 -999.0000    0.6412 
3369.5000    0.1879 -999.0000    0.5010 
3370.0000    0.2255 -999.0000    0.4833 
3370.5000    0.1988 -999.0000    0.5190 
3371.0000    0.1811 -999.0000    0.5215 
3371.5000    0.2039 -999.0000    0.5162 
3372.0000    0.2172 -999.0000    0.5244 
3372.5000    0.2035 -999.0000    0.5467 
3373.0000    0.1422 -999.0000    0.5372 
3373.5000    0.1005 -999.0000    0.6326 
3374.0000    0.1325 -999.0000    0.5194 
3374.5000    0.2539 -999.0000    0.3366 
3375.0000    0.3199 -999.0000    0.2399 
3375.5000    0.3301 -999.0000    0.2254 
3376.0000    0.3625 -999.0000    0.2920 
3376.5000    0.2838 -999.0000    0.3406 
3377.0000    0.1125 -999.0000    0.5832 
3377.5000    0.0001 -999.0000    1.0000 
3378.0000    0.0104 -999.0000    1.0000 
3378.5000    0.0853 -999.0000    0.9201 
3379.0000    0.1122 -999.0000    0.7641 
3379.5000    0.1172 -999.0000    0.7329 
3380.0000    0.0958 -999.0000    0.8250 
3380.5000    0.0675 -999.0000    1.0000 
3381.0000    0.0638 -999.0000    1.0000 
3381.5000    0.0556 -999.0000    1.0000 
3382.0000    0.0507 -999.0000    1.0000 
3382.5000    0.0705 -999.0000    1.0000 
3383.0000    0.1091 -999.0000    0.9997 
3383.5000    0.1353 -999.0000    0.8795 
3384.0000    0.1364 -999.0000    0.8845 
3384.5000    0.1336 -999.0000    0.9081 
3385.0000    0.1383 -999.0000    0.8835 
3385.5000    0.1518 -999.0000    0.8492 
3386.0000    0.1553 -999.0000    0.8888 
3386.5000    0.1368 -999.0000    1.0000 
3387.0000    0.1340 -999.0000    1.0000 
3387.5000    0.1536 -999.0000    1.0000 
3388.0000    0.1690 -999.0000    0.9350 
3388.5000    0.1757 -999.0000    0.9187 
3389.0000    0.1730 -999.0000    0.9295 
3389.5000    0.1756 -999.0000    0.9057 
3390.0000    0.1857 -999.0000    0.8407 
3390.5000    0.1947 -999.0000    0.8043 
3391.0000    0.1847 -999.0000    0.8130 
3391.5000    0.1432 -999.0000    0.8773 
3392.0000    0.1004 -999.0000    1.0000 
3392.5000    0.0672 -999.0000    1.0000 
3393.0000    0.0668 -999.0000    1.0000 
3393.5000    0.0836 -999.0000    1.0000 
3394.0000    0.0852 -999.0000    1.0000 
3394.5000    0.0779 -999.0000    1.0000 
3395.0000    0.0752 -999.0000    1.0000 
3395.5000    0.0768 -999.0000    1.0000 
3396.0000    0.0780 -999.0000    1.0000 
3396.5000    0.0795 -999.0000    1.0000 
3397.0000    0.0796 -999.0000    1.0000 
3397.5000    0.0806 -999.0000    1.0000 
3398.0000    0.0900 -999.0000    1.0000 
3398.5000    0.1006 -999.0000    0.9826 
3399.0000    0.1043 -999.0000    0.9897 
3399.5000    0.1031 -999.0000    1.0000 
3400.0000    0.1130 -999.0000    0.9878 
3400.5000    0.1169 -999.0000    0.9504 
3401.0000    0.1316 -999.0000    0.9184 
3401.5000    0.1335 -999.0000    0.9104 
3402.0000    0.1330 -999.0000    0.9140 
3402.5000    0.1362 -999.0000    0.8975 
3403.0000    0.1309 -999.0000    0.9022 
3403.5000    0.1078 -999.0000    1.0000 
3404.0000    0.0915 -999.0000    1.0000 
3404.5000    0.1166 -999.0000    0.9385 
3405.0000    0.1404 -999.0000    0.8302 
3405.5000    0.1348 -999.0000    0.8708 
3406.0000    0.1143 -999.0000    0.9390 
3406.5000    0.0999 -999.0000    1.0000 
3407.0000    0.0906 -999.0000    1.0000 
3407.5000    0.0915 -999.0000    1.0000 
3408.0000    0.1047 -999.0000    0.9793 
3408.5000    0.0964 -999.0000    0.9931 
3409.0000    0.0649 -999.0000    1.0000 
3409.5000    0.0659 -999.0000    1.0000 
3410.0000    0.0934 -999.0000    1.0000 
3410.5000    0.0899 -999.0000    1.0000 
3411.0000    0.0905 -999.0000    1.0000 
3411.5000    0.1013 -999.0000    1.0000 
3412.0000    0.1208 -999.0000    0.9193 
3412.5000    0.1560 -999.0000    0.7915 
3413.0000    0.1726 -999.0000    0.7292 
3413.5000    0.1619 -999.0000    0.7322 
3414.0000    0.1076 -999.0000    0.8157 
3414.5000    0.1010 -999.0000    0.7079 
3415.0000    0.2074 -999.0000    0.4732 
3415.5000    0.2859 -999.0000    0.3555 
3416.0000    0.1801 -999.0000    0.3139 
3416.5000    0.0111 -999.0000    1.0000 
3417.0000    0.0282 -999.0000    1.0000 
3417.5000    0.0206 -999.0000    1.0000 
3418.0000    0.0001 -999.0000    1.0000 
3418.5000    0.0001 -999.0000    1.0000 
3419.0000    0.0019 -999.0000    1.0000 
3419.5000    0.0787 -999.0000    0.4600 
3420.0000    0.1734 -999.0000    0.3900 
3420.5000    0.2785 -999.0000    0.3713 
3421.0000    0.3514 -999.0000    0.3637 
3421.5000    0.3551 -999.0000    0.3837 
3422.0000    0.2840 -999.0000    0.4523 
3422.5000    0.1937 -999.0000    0.5827 
3423.0000    0.1274 -999.0000    0.7708 
3423.5000    0.1028 -999.0000    0.9493 
3424.0000    0.0994 -999.0000    0.9904 
3424.5000    0.1081 -999.0000    1.0000 
3425.0000    0.1197 -999.0000    1.0000 
3425.5000    0.1376 -999.0000    0.9636 
3426.0000    0.1591 -999.0000    0.9102 
3426.5000    0.1790 -999.0000    0.8433 
3427.0000    0.1965 -999.0000    0.7860 
3427.5000    0.2080 -999.0000    0.7918 
3428.0000    0.1917 -999.0000    0.8091 
3428.5000    0.1733 -999.0000    0.8440 
3429.0000    0.1648 -999.0000    0.8758 
3429.5000    0.1622 -999.0000    0.8655 
3430.0000    0.1648 -999.0000    0.8373 
3430.5000    0.1748 -999.0000    0.8223 
3431.0000    0.1662 -999.0000    0.8505 
3431.5000    0.1475 -999.0000    0.9004 
3432.0000    0.1406 -999.0000    0.8954 
3432.5000    0.1377 -999.0000    0.8908 
3433.0000    0.1234 -999.0000    0.9765 
3433.5000    0.0850 -999.0000    1.0000 
3434.0000    0.0363 -999.0000    1.0000 
3434.5000    0.0358 -999.0000    1.0000 
3435.0000    0.0837 -999.0000    1.0000 
3435.5000    0.1215 -999.0000    0.9848 
3436.0000    0.1454 -999.0000    0.8741 
3436.5000    0.1502 -999.0000    0.8430 
3437.0000    0.1392 -999.0000    0.8815 
3437.5000    0.1207 -999.0000    0.9403 
3438.0000    0.0902 -999.0000    1.0000 
3438.5000    0.0534 -999.0000    1.0000 
3439.0000    0.0268 -999.0000    1.0000 
3439.5000    0.0270 -999.0000    1.0000 
3440.0000    0.0522 -999.0000    0.8030 
3440.5000    0.1098 -999.0000    0.5958 
3441.0000    0.1316 -999.0000    0.4885 
3441.5000    0.1365 -999.0000    0.4538 
3442.0000    0.1584 -999.0000    0.4494 
3442.5000    0.2035 -999.0000    0.4336 
3443.0000    0.2187 -999.0000    0.4867 
3443.5000    0.1441 -999.0000    0.6462 
3444.0000    0.0540 -999.0000    1.0000 
3444.5000    0.0541 -999.0000    1.0000 
3445.0000    0.1073 -999.0000    1.0000 
3445.5000    0.1401 -999.0000    0.8827 
3446.0000    0.1356 -999.0000    0.8572 
3446.5000    0.1114 -999.0000    0.9321 
3447.0000    0.0810 -999.0000    1.0000 
3447.5000    0.0891 -999.0000    0.8190 
3448.0000    0.1463 -999.0000    0.5533 
3448.5000    0.1717 -999.0000    0.4240 
3449.0000    0.1375 -999.0000    0.4183 
3449.5000    0.0878 -999.0000    0.4899 
3450.0000    0.0961 -999.0000    0.4934 
3450.5000    0.0925 -999.0000    0.4704 
3451.0000    0.0570 -999.0000    1.0000 
3451.5000    0.0480 -999.0000    1.0000 
3452.0000    0.1139 -999.0000    0.3976 
3452.5000    0.1966 -999.0000    0.3940 
3453.0000    0.1620 -999.0000    0.3968 
3453.5000    0.1121 -999.0000    0.3909 
3454.0000    0.1309 -999.0000    0.4688 
3454.5000    0.1716 -999.0000    0.5268 
3455.0000    0.1949 -999.0000    0.5550 
3455.5000    0.1693 -999.0000    0.6195 
3456.0000    0.1621 -999.0000    0.6531 
3456.5000    0.1746 -999.0000    0.6104 
3457.0000    0.1780 -999.0000    0.6200 
3457.5000    0.1866 -999.0000    0.6480 
3458.0000    0.1842 -999.0000    0.6569 
3458.5000    0.1703 -999.0000    0.6954 
3459.0000    0.1589 -999.0000    0.7243 
3459.5000    0.1584 -999.0000    0.7165 
3460.0000    0.1566 -999.0000    0.7083 
3460.5000    0.1546 -999.0000    0.7054 
3461.0000    0.1541 -999.0000    0.7199 
3461.5000    0.1535 -999.0000    0.7457 
3462.0000    0.1469 -999.0000    0.7833 
3462.5000    0.1335 -999.0000    0.8698 
3463.0000    0.1217 -999.0000    0.9675 
3463.5000    0.1198 -999.0000    1.0000 
3464.0000    0.1163 -999.0000    1.0000 
3464.5000    0.1180 -999.0000    1.0000 
3465.0000    0.1229 -999.0000    1.0000 
3465.5000    0.1322 -999.0000    0.9604 
