~VERSION INFORMATION
 VERS.                 2.0:   CWLS LOG ASCII STANDARD - VERSION 2.0
 WRAP.                  NO:   SINGLE LINE PER DEPTH STEP
 CREA.                 04/15/2020 08:51:23
#CREATED USING IP VERSION 4.5.2018.127 BY RODRIGC1 ON 04/15/2020 08:51:23
~WELL INFORMATION
#MNEM.UNIT       DATA                          DESCRIPTION MNEMONIC
#---------      ---------------------------   --------------------------
 STRT    .FT        330.0000                  : START DEPTH
 STOP    .FT        5034.0000                 : STOP DEPTH
 STEP    .FT        0.5000                    : STEP VALUE
 NULL    .      -999.0000                     : NULL VALUE
 DATE    .      04/15/2020                    : LAS file Creation Date
 WELL   .      CIRA-3900               : Well Name
 COM1   .      Original database: Rosy : Well Comment
 COMP   .      ECOPETROL S.A.          : Company
 FLD    .      LA CIRA INFANTAS        : Field
 STATE  .      SANTANDER               : State
 COUNT  .      COLOMBIA                : Country
 API    .      3900                    : API Number
 UWI    .      CIRA3900                : Unique Well Identifier (UWI)
 LOC    .      SURFACE COORDENATES     : Location
 TOWN   .      N/A                     : Township
 SCT    .      N/A                     : Section
 RANG   .      N/A                     : Range
 PDAT   .      GL                      : Permanent Datum
 EPDAT  .      307.1000                : Elevation of Permanent Datum
 LGMEA  .      DF                      : Log Measured from
 DRMEA  .      DF                      : Drill Measured From
 APDAT  .      16.0000                 : Elevation Above Permanent Datum
 KB     .      323.1000                : KB Elevation
 DF     .      323.1000                : DF Elevation
 GL     .      307.1000                : GL Elevation
 RWS    .      -999                    : Def_Rw
 WST    .      -999                    : Def_Rwt
 UTMZ   .      31                      : UTM Zone
 CNTY   .      BMEJA                   : County
 PROV   .      BARRANCABERMEJA         : Province
 SRVC   .      SCH                     : Contractor
 GDAT   .      WGS 84                  : Geodatum
 LONG   .      0                       : Longitude
 LATI   .      0                       : Latitude
 COORDIN.                              : Grid System
 XCOORD .                              : X or East-West Coordinate
 YCOORD .                              : Y or North-South Coordinate
~CURVE INFORMATION
#MNEM              UNIT       API CODE   Curve Type Comments
#----------  --------------- ----------  ---------- -----------
 DEPTH      .FT                        : Depth       
 PHIE       .Dec                       : Phi         
 K_3104     .                          :             
 SW         .Dec                       : Sw          
~A  DEPTH    PHIE     K_3104      SW    
# ...
4054.0000    0.0558   30.4274    0.3831 
4054.5000    0.0654   69.4091    0.4027 
4055.0000    0.0778   50.4014    0.5060 
4055.5000    0.0620   13.3165    0.4393 
4056.0000    0.0639    5.9779    0.3672 
4056.5000    0.0617   13.0262    0.3901 
4057.0000    0.0603   29.3827    0.4941 
4057.5000    0.0582    9.2510    0.5629 
4058.0000    0.0316    1.8236    0.6925 
4058.5000    0.0019    0.9883    1.0000 
4059.0000    0.0143    1.3652    1.0000 
4059.5000    0.0470    6.9779    0.4740 
4060.0000    0.0725   36.2386    0.4587 
4060.5000    0.0714   55.7925    0.5485 
4061.0000    0.0581   34.7271    0.6956 
4061.5000    0.0503   17.5841    0.8017 
4062.0000    0.0553   11.1304    0.7556 
4062.5000    0.0708   12.8239    0.6133 
4063.0000    0.0950   21.3931    0.4578 
4063.5000    0.1446   82.0135    0.3366 
4064.0000    0.2129  802.1840    0.2816 
4064.5000    0.2726 2994.0049    0.2829 
4065.0000    0.2850 3390.7380    0.2766 
4065.5000    0.2650 1461.5710    0.2824 
4066.0000    0.2159  375.2519    0.3066 
4066.5000    0.1579  183.3577    0.3638 
4067.0000    0.1381  206.5268    0.4224 
4067.5000    0.1446  231.9274    0.4271 
4068.0000    0.1414  268.2204    0.4429 
4068.5000    0.1375  150.2198    0.4425 
4069.0000    0.1510  152.1704    0.4415 
4069.5000    0.1496  331.9994    0.4268 
4070.0000    0.1615  436.8508    0.4832 
4070.5000    0.1446  352.6501    0.5129 
4071.0000    0.1116  192.3573    0.5674 
4071.5000    0.0993  130.4778    0.6108 
4072.0000    0.1128  168.7822    0.5835 
4072.5000    0.1311  214.2124    0.5577 
4073.0000    0.1374  306.7914    0.5235 
4073.5000    0.1466  436.9892    0.5187 
4074.0000    0.1494  501.2324    0.5361 
4074.5000    0.1337  250.4252    0.5616 
4075.0000    0.1112  106.3185    0.5953 
4075.5000    0.1048   96.8363    0.5677 
4076.0000    0.1282  126.7379    0.5494 
4076.5000    0.1336  158.4289    0.5421 
4077.0000    0.1336  210.5012    0.5197 
4077.5000    0.1450  296.6784    0.4920 
4078.0000    0.1517  322.6476    0.4976 
4078.5000    0.1452  256.6275    0.5119 
4079.0000    0.1380  181.7149    0.5087 
4079.5000    0.1468  144.6169    0.4795 
4080.0000    0.1574  167.7325    0.4555 
4080.5000    0.1616  244.9933    0.4480 
4081.0000    0.1676  261.1180    0.4514 
4081.5000    0.1694  410.4649    0.4652 
4082.0000    0.1659  430.7924    0.4765 
4082.5000    0.1699  341.3688    0.4810 
4083.0000    0.1551  282.3429    0.4469 
4083.5000    0.1439  121.9348    0.4509 
4084.0000    0.1300   88.8176    0.4675 
4084.5000    0.1257  149.6708    0.4567 
4085.0000    0.1523  168.3171    0.4557 
4085.5000    0.1599  249.9176    0.4475 
4086.0000    0.1607  350.5486    0.4342 
4086.5000    0.1813  348.7273    0.4175 
4087.0000    0.1865  263.8396    0.4022 
4087.5000    0.1736  157.8970    0.4140 
4088.0000    0.1643  182.5690    0.4235 
4088.5000    0.1699  230.0343    0.4256 
4089.0000    0.1771  267.8345    0.4337 
4089.5000    0.1735  339.4217    0.4102 
4090.0000    0.1789  249.6676    0.4079 
4090.5000    0.1742  151.2591    0.4113 
4091.0000    0.1610  167.4742    0.4092 
4091.5000    0.1657  225.8119    0.4143 
4092.0000    0.1785  379.1890    0.4132 
4092.5000    0.1698  859.6617    0.3942 
4093.0000    0.1550  479.0600    0.4173 
4093.5000    0.1198   48.5459    0.4827 
4094.0000    0.0483    3.1594    0.6348 
4094.5000    0.0001    0.9870    1.0000 
4095.0000    0.0001    0.9074    1.0000 
4095.5000    0.0001    1.2890    1.0000 
4096.0000    0.0001    1.5859    1.0000 
4096.5000    0.0001    1.7864    1.0000 
4097.0000    0.0001    1.6821    1.0000 
4097.5000    0.0001    1.5535    1.0000 
4098.0000    0.0001    1.4313    1.0000 
4098.5000    0.0001    1.6176    1.0000 
4099.0000    0.0001    2.1830    1.0000 
4099.5000    0.0027    2.6792    1.0000 
4100.0000    0.0049    2.2898    1.0000 
4100.5000    0.0010    1.4788    1.0000 
4101.0000    0.0001    1.3024    1.0000 
4101.5000    0.0205    2.0402    1.0000 
4102.0000    0.0504   11.9399    0.7876 
4102.5000    0.0764   59.5573    0.5820 
4103.0000    0.0931   95.2202    0.5194 
4103.5000    0.1009   99.1008    0.5041 
4104.0000    0.1304  139.2722    0.4686 
4104.5000    0.1741  468.0540    0.3794 
4105.0000    0.2054  992.8729    0.3698 
4105.5000    0.1872  758.5732    0.4329 
4106.0000    0.1353  278.1270    0.5267 
4106.5000    0.1022   76.9651    0.5873 
4107.0000    0.1137  102.4248    0.4796 
4107.5000    0.1492  242.4142    0.4079 
4108.0000    0.1563  274.0132    0.4097 
4108.5000    0.1358  183.7977    0.4403 
4109.0000    0.1336  224.9919    0.4352 
4109.5000    0.1629  616.7303    0.3975 
4110.0000    0.1906 1048.1710    0.3981 
4110.5000    0.1772  400.4421    0.4125 
4111.0000    0.1271   27.2114    0.4536 
4111.5000    0.0846    4.3177    0.4641 
4112.0000    0.1086   15.1588    0.3838 
4112.5000    0.1678  106.7549    0.3756 
4113.0000    0.1930  324.6356    0.3668 
4113.5000    0.1998  476.6528    0.3740 
4114.0000    0.2042  491.8912    0.3921 
4114.5000    0.2086  800.5110    0.4036 
4115.0000    0.2117  950.9418    0.4200 
4115.5000    0.2079  595.8209    0.4219 
4116.0000    0.1971  368.2840    0.3956 
4116.5000    0.1804  321.6608    0.3569 
4117.0000    0.1747  669.6202    0.3275 
4117.5000    0.1612  323.2838    0.3599 
4118.0000    0.1384   17.5448    0.4948 
4118.5000    0.0419    1.5772    1.0000 
4119.0000    0.0012    1.0611    1.0000 
4119.5000    0.0007    1.1471    1.0000 
4120.0000    0.0001    1.6310    1.0000 
4120.5000    0.0001    1.7476    1.0000 
4121.0000    0.0001    1.6363    1.0000 
4121.5000    0.0001    1.6935    1.0000 
4122.0000    0.0001    1.8271    1.0000 
4122.5000    0.0001    1.6747    1.0000 
4123.0000    0.0001    1.4792    1.0000 
4123.5000    0.0001    1.2832    1.0000 
4124.0000    0.0001    1.3634    1.0000 
4124.5000    0.0001    3.6454    1.0000 
4125.0000    0.0496   39.4592    0.4044 
4125.5000    0.1009  140.1019    0.2922 
4126.0000    0.1303  190.5265    0.3208 
4126.5000    0.1283  151.9061    0.3451 
4127.0000    0.1364  147.6541    0.3108 
4127.5000    0.1717  313.7143    0.3226 
4128.0000    0.1984  753.3454    0.3521 
4128.5000    0.2018  848.8713    0.3705 
4129.0000    0.1839  457.7170    0.3838 
4129.5000    0.1626  206.2209    0.4066 
4130.0000    0.1613  145.6342    0.4050 
4130.5000    0.1763  220.8608    0.3889 
4131.0000    0.1963  601.5472    0.3906 
4131.5000    0.2108 1189.2310    0.4018 
4132.0000    0.2118 1162.7980    0.4185 
4132.5000    0.1924  947.7814    0.4388 
4133.0000    0.1630  458.4058    0.4743 
4133.5000    0.1333   46.6006    0.5359 
4134.0000    0.0738    3.3205    0.6402 
4134.5000    0.0001    0.7598    1.0000 
4135.0000    0.0001    0.5556    1.0000 
4135.5000    0.0001    1.3451    1.0000 
4136.0000    0.0392   42.3978    0.4839 
4136.5000    0.1735  133.4259    0.3521 
4137.0000    0.2056  400.2281    0.3241 
4137.5000    0.1636  493.3881    0.3217 
4138.0000    0.1180  154.9614    0.3907 
4138.5000    0.0604   30.4137    0.4085 
4139.0000    0.0338    8.3445    0.3366 
4139.5000    0.0469    3.8039    0.3557 
4140.0000    0.0742    2.1600    0.7452 
4140.5000    0.0232    1.1948    1.0000 
4141.0000    0.0002    1.1674    1.0000 
4141.5000    0.0001    1.6258    1.0000 
4142.0000    0.0070    2.2425    1.0000 
4142.5000    0.0071    2.5845    1.0000 
4143.0000    0.0011    2.0143    1.0000 
4143.5000    0.0001    1.5815    1.0000 
4144.0000    0.0001    1.6049    1.0000 
4144.5000    0.0001    1.8955    1.0000 
4145.0000    0.0001    2.1374    1.0000 
4145.5000    0.0001    1.7586    1.0000 
4146.0000    0.0001    1.4337    1.0000 
4146.5000    0.0001    1.4859    1.0000 
4147.0000    0.0001    1.6611    1.0000 
4147.5000    0.0001    1.8211    1.0000 
4148.0000    0.0001    1.8568    1.0000 
4148.5000    0.0001    1.4385    1.0000 
4149.0000    0.0001    1.1936    1.0000 
4149.5000    0.0048    2.8775    1.0000 
4150.0000    0.0630   27.5904    0.5240 
4150.5000    0.1502  100.9957    0.3361 
4151.0000    0.2198  915.1390    0.3203 
4151.5000    0.2283 2087.6960    0.3360 
